     2.10           OBSERVATION DATA    G (GPS)             RINEX VERSION / TYPE
teqc  2002Mar14     CORS/NGS/NOAA       20030411 19:42:17UTCPGM / RUN BY / DATE
Solaris 2.7|Ultra 2|cc SC5.0|=+-|*Sparc                     COMMENT
BIT 2 OF LLI FLAGS DATA COLLECTED UNDER A/S CONDITION       COMMENT
mthn                                                        MARKER NAME
xxx                                                         MARKER NUMBER
CORS/NGS/NOAA       FL-DOT                                  OBSERVER / AGENCY
LP019992605         ASHTECH   Z-XII3    CD00                REC # / TYPE / VERS
620002308           ASH701945C_M                            ANT # / TYPE
   901910.2905 -5726184.9678  2651532.5840                  APPROX POSITION XYZ
        0.0000        0.0000        0.0000                  ANTENNA: DELTA H/E/N
     1     1                                                WAVELENGTH FACT L1/2
     7    C1    L1    L2    P1    P2    D1    D2            # / TYPES OF OBSERV
     1.0000                                                 INTERVAL
 SNR is mapped to RINEX snr flag value [1-9]                COMMENT
  L1: 1 -> 1;  90 -> 5; 210 -> 9                            COMMENT
  L2: 1 -> 1; 150 -> 5; 250 -> 9                            COMMENT
teqc windowed: delta = 3900.000 sec                         COMMENT
  2003     4    11    18     0    0.0000000     GPS         TIME OF FIRST OBS
                                                            END OF HEADER
 03  4 11 18  0  0.0000000  0  8G24G10G 5G29G 4G 7G30G13
  21592120.2804  -16766126.85849 -13053617.56047  21592120.7414   21592128.3664
      -689.9834       -537.6474
  20357833.4344  -18643096.13549 -14255033.38147  20357832.3574   20357840.7754
      1228.4514        957.2344
  21945118.3364  -15890528.87449 -11906569.79946  21945117.7594   21945126.4824
        52.6844         41.0494
  24180762.8934   -1335814.95149  -1021155.23345  24180762.6914   24180782.2064
      3034.6324       2364.6414
  22807365.7614  -10067420.45149  -7566669.68446  22807365.7524   22807374.2534
     -1779.4424      -1386.5824
  22583046.5174  -11082334.06449  -8627606.84246  22583045.7814   22583057.6154
     -2232.6114      -1739.7054
  23341920.4224   -8852884.69149  -6878242.71745  23341920.7324   23341928.7894
      1903.7444       1483.4344
  24263850.7294   -3552056.95249  -2664610.22345  24263851.1584   24263860.6744
      -981.7124       -764.9754
 03  4 11 18  0  1.0000000  0  8G24G10G 5G29G 4G 7G30G13
  21592251.5884  -16765437.16149 -13053080.13047  21592251.6074   21592259.5274
      -690.3964       -537.9734
  20357599.6594  -18644324.55649 -14255990.58747  20357598.7854   20357606.9244
      1227.4234        956.4314
  21945108.2644  -15890581.54949 -11906610.84746  21945107.9954   21945116.4854
        51.6924         40.2734
  24180185.4174   -1338849.97849  -1023520.17745  24180185.3034   24180204.2824
      3034.3714       2364.4274
  22807704.2974  -10065641.32149  -7565283.35346  22807704.8194   22807712.7264
     -1779.8224      -1386.8574
  22583471.3334  -11080101.58249  -8625867.24746  22583470.4644   22583480.7444
     -2233.3674      -1740.2734
  23341558.0804   -8854788.48049  -6879726.19045  23341558.2104   23341567.0644
      1902.8094       1482.7114
  24264037.4914   -3551075.28049  -2663845.28445  24264038.2644   24264047.5694
      -982.6644       -765.7084
 03  4 11 18  0  2.0000000  0  8G24G10G 5G29G 4G 7G30G13
  21592382.8404  -16764747.27049 -13052542.55747  21592383.0574   21592390.4394
      -689.9114       -537.5964
  20357366.0334  -18645552.21949 -14256947.20847  20357365.0404   20357373.4884
      1227.3204        956.3504
  21945098.3314  -15890633.49449 -11906651.31946  21945097.6884   21945106.8764
        51.6104         40.2064
  24179607.8104   -1341884.92649  -1025885.06445  24179607.8144   24179626.8004
      3034.9694       2364.8994
  22808042.8514  -10063862.06549  -7563896.92046  22808043.3704   22808051.9004
     -1779.2704      -1386.4544
  22583896.2354  -11077868.57749  -8624127.25746  22583894.8554   22583906.1314
     -2233.2354      -1740.1844
  23341195.8554   -8856691.61149  -6881209.15445  23341196.4364   23341205.0884
      1902.8374       1482.7314
  24264224.5014   -3550092.89949  -2663079.79045  24264225.3194   24264234.4034
      -982.6814       -765.7254
 03  4 11 18  0  3.0000000  0  8G24G10G 5G29G 4G 7G30G13
  21592514.1024  -16764057.40749 -13052004.99947  21592513.7194   21592522.0124
      -690.0454       -537.7044
  20357132.4924  -18646779.33449 -14257903.40247  20357131.4744   20357139.8854
      1226.6634        955.8434
  21945088.5174  -15890684.91949 -11906691.39446  21945088.0594   21945097.0314
        50.9984         39.7494
  24179030.1874   -1344920.09949  -1028250.12645  24179030.1384   24179049.1054
      3035.1224       2365.0224
  22808381.4244  -10062082.90549  -7562510.56446  22808381.1654   22808389.9784
     -1779.2964      -1386.4614
  22584321.1734  -11075635.28149  -8622387.03746  22584320.4884   22584331.0284
     -2233.6994      -1740.5234
  23340833.7104   -8858594.28649  -6882691.75645  23340834.3114   23340842.7134
      1902.3064       1482.3094
  24264411.5164   -3549110.01949  -2662313.91045  24264412.0274   24264421.5254
      -983.3154       -766.2204
 03  4 11 18  0  4.0000000  0  8G24G10G 5G29G 4G 7G30G13
  21592645.4304  -16763367.49449 -13051467.40447  21592645.5444   21592653.5434
      -689.9534       -537.6334
  20356899.0864  -18648005.83049 -14258859.11147  20356898.2144   20356906.2094
      1226.1654        955.4494
  21945078.8874  -15890735.73149 -11906730.99346  21945078.0544   21945087.2564
        50.4884         39.3354
  24178452.5834   -1347955.30049  -1030615.21045  24178452.4374   24178471.2564
      3035.2294       2365.1114
  22808719.9414  -10060303.75949  -7561124.21146  22808720.0684   22808728.6084
     -1779.1224      -1386.3444
  22584746.1994  -11073401.59749  -8620646.51446  22584745.5124   22584756.7304
     -2233.9284      -1740.7264
  23340471.7394   -8860496.41349  -6884173.93345  23340472.7424   23340480.7994
      1901.8524       1481.9644
  24264598.7544   -3548126.58549  -2661547.59745  24264598.7844   24264609.2154
      -983.7004       -766.5234
 03  4 11 18  0  5.0000000  0  8G24G10G 5G29G 4G 7G30G13
  21592776.7384  -16762677.58249 -13050929.80947  21592776.9454   21592784.6504
      -690.0204       -537.6764
  20356665.7834  -18649231.75149 -14259814.37247  20356664.6694   20356673.2244
      1225.5144        954.9484
  21945069.3524  -15890786.00149 -11906770.16446  21945068.5104   21945077.6154
        49.8874         38.8784
  24177875.0164   -1350990.67049  -1032980.42345  24177875.2084   24177893.8294
      3035.3054       2365.1644
  22809058.4764  -10058524.67749  -7559737.92046  22809058.7234   22809067.9114
     -1779.1414      -1386.3354
  22585171.2614  -11071167.59749  -8618905.73046  22585170.8764   22585181.3414
     -2234.3174      -1741.0354
  23340109.8564   -8862398.04049  -6885655.71845  23340110.9784   23340120.0074
      1901.2964       1481.5294
  24264786.0914   -3547142.62849  -2660780.87445  24264785.7744   24264796.4834
      -984.3374       -767.0184
 03  4 11 18  0  6.0000000  0  8G24G10G 5G29G 4G 7G30G13
  21592908.0174  -16761987.67549 -13050392.22147  21592908.3044   21592915.9624
      -690.3514       -537.9344
  20356432.5984  -18650457.11249 -14260769.19847  20356431.5714   20356440.0384
      1224.6224        954.2454
  21945059.9154  -15890835.72649 -11906808.91646  21945059.2954   21945068.1584
        48.9984         38.1894
  24177297.4824   -1354026.19249  -1035345.75345  24177297.5654   24177316.2094
      3035.1424       2365.0334
  22809396.9864  -10056745.65149  -7558351.67546  22809397.4774   22809406.1214
     -1779.4684      -1386.5724
  22585596.3764  -11068933.26749  -8617164.69946  22585595.2474   22585606.7754
     -2234.9724      -1741.5224
  23339747.9414   -8864299.22149  -6887137.15245  23339749.3324   23339758.2304
      1900.5114       1480.9064
  24264973.4644   -3546158.17249  -2660013.76645  24264972.6814   24264983.7474
      -985.1414       -767.6454
 03  4 11 18  0  7.0000000  0  8G24G10G 5G29G 4G 7G30G13
  21593039.3474  -16761297.60349 -13049854.50547  21593039.6574   21593047.4074
      -690.0214       -537.6794
  20356199.5694  -18651681.74149 -14261723.45347  20356198.8154   20356206.9274
      1224.3984        954.0694
  21945050.5954  -15890884.74649 -11906847.11446  21945049.9094   21945059.3014
        48.7714         38.0014
  24176719.8824   -1357061.67749  -1037711.05645  24176720.0854   24176738.6734
      3035.6344       2365.4214
  22809735.5824  -10054966.53749  -7556965.36346  22809736.3264   22809744.8364
     -1779.0474      -1386.2524
  22586021.6264  -11066698.44349  -8615423.28446  22586020.4834   22586032.0314
     -2235.0204      -1741.5874
  23339386.2904   -8866199.74749  -6888618.08345  23339387.6824   23339396.9894
      1900.3624       1480.8004
  24265160.9774   -3545173.03249  -2659246.12145  24265160.0274   24265171.8914
      -985.3274       -767.7864
 03  4 11 18  0  8.0000000  0  8G24G10G 5G29G 4G 7G30G13
  21593170.6854  -16760607.53549 -13049316.78747  21593170.8314   21593178.4044
      -689.9624       -537.6374
  20355966.6174  -18652905.79449 -14262677.26247  20355965.7844   20355974.0544
      1223.8864        953.6824
  21945041.3834  -15890933.21549 -11906884.88146  21945040.6534   21945049.6364
        48.3404         37.6754
  24176142.2364   -1360097.33449  -1040076.49345  24176142.4054   24176160.8144
      3035.9074       2365.6314
  22810074.2324  -10053187.45749  -7555579.06646  22810074.8224   22810082.5654
     -1778.8534      -1386.1214
  22586446.9524  -11064463.29149  -8613681.61746  22586446.5064   22586458.0104
     -2235.2094      -1741.6934
  23339024.7244   -8868099.77949  -6890098.62545  23339026.4994   23339034.9414
      1899.9584       1480.4814
  24265348.6194   -3544187.37249  -2658478.07245  24265348.1084   24265359.1744
      -985.8344       -768.1854
 03  4 11 18  0  9.0000000  0  8G24G10G 5G29G 4G 7G30G13
  21593302.0224  -16759917.49649 -13048779.09447  21593301.6774   21593309.8034
      -690.2104       -537.8304
  20355733.7824  -18654129.31549 -14263630.65347  20355732.8364   20355741.0894
      1223.0584        953.0314
  21945032.2544  -15890981.15449 -11906922.23046  21945031.2844   21945041.2194
        47.5004         37.0094
  24175564.6274   -1363133.13049  -1042442.03945  24175564.6664   24175583.2024
      3035.5464       2365.3504
  22810412.7544  -10051408.49349  -7554192.85346  22810414.5684   22810420.8484
     -1779.1034      -1386.3164
  22586872.3184  -11062227.86249  -8611939.72346  22586872.3204   22586882.6744
     -2235.8194      -1742.1844
  23338663.1264   -8869999.37749  -6891578.82945  23338665.0104   23338673.8554
      1899.1844       1479.8784
  24265536.3774   -3543201.23749  -2657709.65445  24265536.5224   24265546.6064
      -986.6214       -768.7954
 03  4 11 18  0 10.0000000  0  8G24G10G 5G29G 4G 7G30G13
  21593433.3594  -16759227.38749 -13048241.35147  21593433.4334   21593440.7504
      -690.3464       -537.9244
  20355501.0504  -18655352.19549 -14264583.54747  20355500.1144   20355508.3724
      1222.3714        952.4974
  21945023.2084  -15891028.49349 -11906959.12446  21945022.4274   21945031.8754
        46.8334         36.4974
  24174986.9464   -1366169.03149  -1044807.66645  24174987.0454   24175005.2914
      3035.7394       2365.5004
  22810751.3674  -10049629.52049  -7552806.64846  22810752.0034   22810759.8184
     -1779.2584      -1386.4274
  22587297.8124  -11059992.05049  -8610197.54746  22587297.7164   22587309.5114
     -2236.2834      -1742.5424
  23338301.7444   -8871898.44049  -6893058.62045  23338303.3554   23338312.3844
      1898.5794       1479.4164
  24265724.2064   -3542214.53149  -2656940.79345  24265724.2194   24265734.7104
      -987.2124       -769.2544
 03  4 11 18  0 11.0000000  0  8G24G10G 5G29G 4G 7G30G13
  21593564.7214  -16758537.19549 -13047703.54147  21593564.7524   21593572.3824
      -690.1264       -537.7624
  20355268.4444  -18656574.41149 -14265535.92547  20355267.7174   20355275.8324
      1221.9984        952.2124
  21945014.3514  -15891075.18549 -11906995.51146  21945013.3014   21945022.0464
        46.4924         36.2344
  24174409.2894   -1369204.97849  -1047173.32945  24174409.2454   24174427.7814
      3036.0394       2365.7344
  22811089.9714  -10047850.53849  -7551420.43046  22811090.4254   22811098.3154
     -1778.9094      -1386.1524
  22587723.3534  -11057755.80049  -8608455.01846  22587722.4344   22587734.4854
     -2236.3714      -1742.6354
  23337940.4694   -8873796.92449  -6894537.95745  23337941.4074   23337951.2424
      1898.3164       1479.2044
  24265912.1524   -3541227.19149  -2656171.44145  24265912.2154   24265922.5874
      -987.5864       -769.5494
 03  4 11 18  0 12.0000000  0  8G24G10G 5G29G 4G 7G30G13
  21593696.1064  -16757846.96449 -13047165.70047  21593696.4134   21593704.3054
      -690.1414       -537.7694
  20355035.9324  -18657796.02349 -14266487.82747  20355035.0494   20355043.2544
      1221.4214        951.7544
  21945005.5294  -15891121.28349 -11907031.43346  21945004.8884   21945013.7054
        45.8934         35.7674
  24173831.5274   -1372241.03349  -1049539.07545  24173831.3234   24173849.9734
      3036.1884       2365.8454
  22811428.6514  -10046071.54249  -7550034.20046  22811429.7364   22811437.4054
     -1778.8854      -1386.1304
  22588149.0414  -11055519.17649  -8606712.19946  22588148.8144   22588158.8254
     -2236.7184      -1742.8684
  23337579.3734   -8875694.87549  -6896016.87945  23337580.2814   23337589.3674
      1897.7944       1478.7964
  24266100.2314   -3540239.30649  -2655401.66145  24266100.2814   24266110.7274
      -988.0944       -769.9424
 03  4 11 18  0 13.0000000  0  8G24G10G 5G29G 4G 7G30G13
  21593827.4854  -16757156.78049 -13046627.88947  21593827.3484   21593835.1334
      -690.3394       -537.9354
  20354803.5244  -18659017.09549 -14267439.30947  20354802.8114   20354810.8464
      1220.6624        951.1674
  21944996.8034  -15891166.87449 -11907066.95946  21944996.1244   21945004.8914
        45.1564         35.1884
  24173253.8434   -1375277.26149  -1051904.95645  24173253.6374   24173272.0474
      3036.1794       2365.8434
  22811767.2384  -10044292.69049  -7548648.08046  22811767.3704   22811776.2354
     -1778.9734      -1386.2054
  22588574.6684  -11053282.26349  -8604969.15546  22588573.0634   22588584.5944
     -2237.2204      -1743.2844
  23337218.2804   -8877592.39449  -6897495.46345  23337219.6124   23337227.7864
      1897.1734       1478.3134
  24266288.3744   -3539250.98349  -2654631.53845  24266288.6914   24266298.6154
      -988.8154       -770.5024
 03  4 11 18  0 14.0000000  0  8G24G10G 5G29G 4G 7G30G13
  21593958.8774  -16756466.45549 -13046089.97047  21593958.9034   21593966.7044
      -689.9864       -537.6474
  20354571.2554  -18660237.45349 -14268390.23647  20354570.8684   20354578.8164
      1220.4294        950.9854
  21944988.2424  -15891211.78449 -11907101.95046  21944987.4654   21944996.6404
        44.9594         35.0214
  24172676.0494   -1378313.48849  -1054270.83845  24172675.8644   24172694.5014
      3036.6844       2366.2394
  22812105.8164  -10042513.76649  -7547261.90246  22812105.6984   22812113.7194
     -1778.5654      -1385.8974
  22589000.4664  -11051044.89249  -8603225.74546  22588999.3794   22589009.7944
     -2237.2204      -1743.3004
  23336857.3184   -8879489.30849  -6898973.57745  23336857.8354   23336866.9004
      1897.0134       1478.1964
  24266476.8014   -3538261.98949  -2653860.89545  24266477.1014   24266486.5954
      -988.9314       -770.5904
 03  4 11 18  0 15.0000000  0  8G24G10G 5G29G 4G 7G30G13
  21594090.2734  -16755776.22849 -13045552.13447  21594090.2084   21594097.8254
      -690.5454       -538.0774
  20354339.0974  -18661457.34649 -14269340.79747  20354338.5744   20354346.6094
      1219.2634        950.0714
  21944979.7254  -15891256.23949 -11907136.59046  21944979.6484   21944987.6824
        43.8224         34.1554
  24172098.2724   -1381349.93249  -1056636.88945  24172097.8874   24172116.8524
      3036.1614       2365.8324
  22812444.3664  -10040734.98149  -7545875.83846  22812443.9174   22812452.8764
     -1779.0744      -1386.2754
  22589426.2694  -11048807.29549  -8601482.17446  22589425.4784   22589436.0294
     -2238.1464      -1744.0154
  23336496.4834   -8881385.84349  -6900451.39445  23336496.9434   23336506.1384
      1895.9674       1477.3814
  24266665.1534   -3537272.56449  -2653089.91345  24266665.2054   24266674.7184
      -990.0264       -771.4484
 03  4 11 18  0 16.0000000  0  8G24G10G 5G29G 4G 7G30G13
  21594221.6824  -16755085.87449 -13045014.19747  21594221.1724   21594228.7154
      -690.5184       -538.0664
  20354107.1014  -18662676.54249 -14270290.82247  20354106.6864   20354114.4584
      1218.7704        949.6874
  21944971.3424  -15891300.00849 -11907170.70246  21944970.7494   21944979.4144
        43.3414         33.7854
  24171520.4724   -1384386.42749  -1059002.97845  24171519.9814   24171539.1814
      3036.3664       2365.9854
  22812782.9554  -10038956.15949  -7544489.75346  22812782.7244   22812791.4284
     -1778.9454      -1386.1664
  22589852.1734  -11046569.25149  -8599738.25246  22589852.3034   22589862.9014
     -2238.3984      -1744.1984
  23336135.8154   -8883281.75249  -6901928.72545  23336135.7454   23336145.6094
      1895.4624       1476.9714
  24266853.6084   -3536282.50949  -2652318.44545  24266853.8354   24266863.2854
      -990.4834       -771.8034
 03  4 11 18  0 17.0000000  0  8G24G10G 5G29G 4G 7G30G13
  21594353.1234  -16754395.44449 -13044476.20547  21594352.9174   21594360.6634
      -690.2824       -537.8774
  20353875.2054  -18663895.06449 -14271240.31947  20353874.5474   20353882.5744
      1218.4094        949.4164
  21944963.0934  -15891343.15649 -11907204.32846  21944962.5654   21944971.3874
        43.0344         33.5264
  24170942.5974   -1387422.98549  -1061369.11845  24170942.1494   24170960.9954
      3036.7644       2366.3024
  22813121.4974  -10037177.33849  -7543103.66246  22813121.7904   22813129.8334
     -1778.5934      -1385.9334
  22590278.1474  -11044330.79749  -8597994.00546  22590277.9284   22590288.8994
     -2238.4844      -1744.2784
  23335775.1524   -8885177.10549  -6903405.61645  23335775.3354   23335785.0884
      1895.2924       1476.8424
  24267042.1434   -3535291.84649  -2651546.50045  24267042.1534   24267051.9904
      -990.7574       -772.0214
 03  4 11 18  0 18.0000000  0  8G24G10G 5G29G 4G 7G30G13
  21594484.5364  -16753705.07549 -13043938.25547  21594484.2454   21594492.0984
      -690.5634       -538.1064
  20353643.4154  -18665113.09649 -14272189.43647  20353642.7834   20353651.0204
      1217.5854        948.7604
  21944954.9654  -15891385.81949 -11907237.57246  21944954.3274   21944963.4274
        42.2294         32.8874
  24170364.7074   -1390459.69549  -1063735.37645  24170364.2464   24170383.1104
      3036.6134       2366.1804
  22813460.0394  -10035398.59049  -7541717.62146  22813459.9324   22813467.5304
     -1778.8964      -1386.1514
  22590704.1794  -11042092.06649  -8596249.54246  22590704.2904   22590714.7194
     -2239.0634      -1744.7004
  23335414.5684   -8887072.05549  -6904882.20445  23335415.0054   23335424.6014
      1894.5294       1476.2614
  24267230.7454   -3534300.74849  -2650774.21745  24267231.0624   24267240.5494
      -991.5624       -772.6414
 03  4 11 18  0 19.0000000  0  8G24G10G 5G29G 4G 7G30G13
  21594616.0024  -16753014.60849 -13043400.22547  21594615.5844   21594623.3284
      -690.3464       -537.9424
  20353411.7804  -18666330.43549 -14273138.00947  20353411.3484   20353419.2514
      1217.1724        948.4474
  21944946.9694  -15891427.81149 -11907270.29546  21944946.7594   21944955.7314
        41.8524         32.6034
  24169786.8524   -1393496.47249  -1066101.68345  24169786.6694   24169805.1254
      3036.9844       2366.4664
  22813798.5424  -10033619.83349  -7540331.57646  22813798.0274   22813805.5194
     -1778.6394      -1385.9444
  22591130.2954  -11039852.88849  -8594504.73146  22591130.2974   22591140.5384
     -2239.2564      -1744.8814
  23335054.1924   -8888966.42049  -6906358.33245  23335054.7264   23335063.5854
      1894.2364       1476.0214
  24267419.4604   -3533309.03849  -2650001.45545  24267419.7104   24267429.2284
      -991.8394       -772.8604
 03  4 11 18  0 20.0000000  0  8G24G10G 5G29G 4G 7G30G13
  21594747.4094  -16752324.17449 -13042862.22847  21594746.7024   21594754.6774
      -690.6844       -538.1904
  20353180.2414  -18667547.25149 -14274086.17547  20353179.5324   20353187.7824
      1216.2624        947.7364
  21944939.1004  -15891469.30849 -11907302.62746  21944939.8104   21944946.9424
        40.9384         31.8984
  24169208.9304   -1396533.45349  -1068468.15145  24169208.7204   24169227.2334
      3036.8534       2366.3724
  22814137.0104  -10031841.16049  -7538945.60046  22814136.3904   22814144.5654
     -1778.9264      -1386.1704
  22591556.4144  -11037613.44349  -8592759.71146  22591555.7054   22591567.1994
     -2239.9454      -1745.4014
  23334693.9824   -8890860.31549  -6907834.09545  23334695.4544   23334702.9834
      1893.4664       1475.4304
  24267608.2604   -3532316.81449  -2649228.29445  24267608.1924   24267617.6774
      -992.7564       -773.5744
 03  4 11 18  0 21.0000000  0  8G24G10G 5G29G 4G 7G30G13
  21594878.8204  -16751633.64349 -13042324.15347  21594878.3754   21594885.9584
      -690.7524       -538.2444
  20352948.8234  -18668763.39549 -14275033.82147  20352948.3834   20352956.4244
      1215.6164        947.2214
  21944931.3644  -15891510.15549 -11907334.45946  21944930.8344   21944939.5194
        40.3244         31.4274
  24168630.9844   -1399570.44349  -1070834.62545  24168630.4814   24168648.8904
      3036.7884       2366.3204
  22814475.5724  -10030062.46449  -7537559.60546  22814475.5454   22814482.8014
     -1778.9234      -1386.1914
  22591982.6504  -11035373.55549  -8591014.34746  22591981.7794   22591992.3894
     -2240.3074      -1745.6884
  23334333.7884   -8892753.65049  -6909309.42145  23334334.8694   23334343.1234
      1892.8514       1474.9424
  24267797.1494   -3531324.02949  -2648454.69845  24267797.5514   24267806.0924
      -993.3024       -773.9974
 03  4 11 18  0 22.0000000  0  8G24G10G 5G29G 4G 7G30G13
  21595010.2954  -16750943.02549 -13041786.00947  21595010.1344   21595017.6154
      -690.4274       -537.9944
  20352717.5564  -18669978.87949 -14275980.95147  20352717.1094   20352725.2394
      1215.3664        947.0334
  21944923.7014  -15891550.36449 -11907365.79246  21944923.0174   21944931.7374
        40.1054         31.2534
  24168053.0554   -1402607.45649  -1073201.11745  24168052.6184   24168071.4414
      3037.2724       2366.6994
  22814814.1134  -10028283.72749  -7536173.57946  22814813.6444   22814822.5074
     -1778.4344      -1385.7774
  22592408.9384  -11033133.26149  -8589268.67746  22592407.9214   22592419.8004
     -2240.2654      -1745.6534
  23333973.7434   -8894646.42249  -6910784.30745  23333974.5284   23333982.8194
      1892.7404       1474.8564
  24267986.2644   -3530330.62149  -2647680.61445  24267986.7154   24267995.0844
      -993.4594       -774.1284
 03  4 11 18  0 23.0000000  0  8G24G10G 5G29G 4G 7G30G13
  21595141.7544  -16750252.44649 -13041247.89547  21595141.3144   21595149.0764
      -690.5744       -538.1144
  20352486.3984  -18671193.82649 -14276927.66347  20352485.8344   20352494.0164
      1214.6584        946.4874
  21944916.1394  -15891590.06849 -11907396.73646  21944915.0934   21944924.5114
        39.4444         30.7464
  24167475.0494   -1405644.66549  -1075567.76645  24167474.1264   24167493.3504
      3037.2474       2366.6774
  22815152.6004  -10026505.11449  -7534787.64146  22815152.9494   22815160.8794
     -1778.5744      -1385.8994
  22592835.3514  -11030892.68049  -8587522.77846  22592833.9844   22592846.4794
     -2240.7744      -1746.0494
  23333613.7104   -8896538.73849  -6912258.83745  23333614.6674   23333622.7504
      1892.0924       1474.3554
  24268175.4444   -3529336.72849  -2646906.15545  24268175.9344   24268184.2254
      -994.0514       -774.5824
 03  4 11 18  0 24.0000000  0  8G24G10G 5G29G 4G 7G30G13
  21595273.1574  -16749561.85849 -13040709.76847  21595272.9744   21595280.4854
      -690.8774       -538.3474
  20352255.3474  -18672408.20449 -14277873.92647  20352254.9474   20352262.6714
      1213.8184        945.8254
  21944908.7164  -15891629.20949 -11907427.23246  21944908.6474   21944917.1264
        38.5844         30.0644
  24166897.1054   -1408682.04249  -1077934.54045  24166896.2724   24166914.8684
      3037.1144       2366.5694
  22815491.0794  -10024726.54149  -7533401.73946  22815490.5854   22815497.7654
     -1778.8474      -1386.0944
  22593261.7744  -11028651.77249  -8585776.62246  22593261.1124   22593272.0334
     -2241.3704      -1746.5244
  23333253.7344   -8898430.57949  -6913733.00045  23333254.4264   23333262.9384
      1891.3714       1473.8044
  24268364.7444   -3528342.31449  -2646131.28845  24268365.0524   24268373.4324
      -994.9764       -775.3024
 03  4 11 18  0 25.0000000  0  8G24G10G 5G29G 4G 7G30G13
  21595404.6274  -16748871.21549 -13040171.60747  21595404.2444   21595412.2184
      -691.0284       -538.4584
  20352024.3824  -18673621.94949 -14278819.70147  20352023.7884   20352031.8254
      1213.1104        945.2854
  21944901.3524  -15891667.75749 -11907457.26746  21944900.8194   21944909.4644
        37.9114         29.5384
  24166319.0844   -1411719.52149  -1080301.39745  24166318.3524   24166337.1244
      3037.1664       2366.6134
  22815829.5914  -10022947.99549  -7532015.86146  22815828.6564   22815836.6734
     -1778.9044      -1386.1614
  22593688.2514  -11026410.48249  -8584030.16646  22593687.0484   22593698.3324
     -2241.8264      -1746.8834
  23332893.9304   -8900321.85749  -6915206.72245  23332894.4714   23332902.9494
      1890.6824       1473.2504
  24268554.0974   -3527347.35849  -2645355.99845  24268554.7354   24268563.0534
      -995.5424       -775.7484
 03  4 11 18  0 26.0000000  0  8G24G10G 5G29G 4G 7G30G13
  21595536.0944  -16748180.45249 -13039633.35347  21595536.0854   21595543.2194
      -690.7344       -538.2364
  20351793.5924  -18674834.98549 -14279764.92647  20351793.0454   20351801.0384
      1212.7784        945.0224
  21944894.1874  -15891705.60749 -11907486.76346  21944893.7454   21944902.1574
        37.6244         29.3154
  24165741.1764   -1414756.96049  -1082668.22045  24165740.3614   24165759.3034
      3037.4674       2366.8434
  22816168.1384  -10021169.38549  -7530629.93746  22816168.0904   22816175.4624
     -1778.5034      -1385.8434
  22594114.7924  -11024168.72449  -8582283.34446  22594114.3734   22594125.6694
     -2241.9284      -1746.9494
  23332534.2524   -8902212.56749  -6916680.00445  23332534.4674   23332543.0184
      1890.4994       1473.1164
  24268743.7084   -3526351.72349  -2644580.17845  24268743.8024   24268752.3324
      -995.8844       -776.0134
 03  4 11 18  0 27.0000000  0  8G24G10G 5G29G 4G 7G30G13
  21595667.5794  -16747489.70849 -13039095.11047  21595667.3004   21595674.8254
      -690.8724       -538.3494
  20351562.8814  -18676047.48649 -14280709.73347  20351562.4584   20351570.1434
      1212.0864        944.4844
  21944887.1614  -15891742.94449 -11907515.86346  21944887.1784   21944895.0594
        36.9304         28.7704
  24165163.0284   -1417794.58349  -1085035.18945  24165162.5054   24165181.1624
      3037.5874       2366.9374
  22816506.5624  -10019390.86349  -7529244.07346  22816506.3124   22816513.7264
     -1778.6174      -1385.9364
  22594541.4054  -11021926.68749  -8580536.30546  22594540.8764   22594552.8804
     -2242.4104      -1747.3254
  23332174.6764   -8904102.78949  -6918152.90345  23332174.9464   23332183.3444
      1889.9304       1472.6854
  24268933.4054   -3525355.61049  -2643803.98945  24268933.1914   24268941.8854
      -996.5194       -776.5054
 03  4 11 18  0 28.0000000  0  8G24G10G 5G29G 4G 7G30G13
  21595799.0684  -16746798.90549 -13038556.82747  21595798.6024   21595806.4714
      -690.7344       -538.2284
  20351332.3104  -18677259.35249 -14281654.04647  20351331.9104   20351339.8014
      1211.6724        944.1654
  21944880.1804  -15891779.67149 -11907544.48746  21944879.5364   21944888.4224
        36.5484         28.4794
  24164584.9454   -1420832.26949  -1087402.20545  24164584.6854   24164603.1564
      3037.8314       2367.1354
  22816844.9844  -10017612.31949  -7527858.19646  22816844.3864   22816853.2414
     -1778.4994      -1385.8384
  22594968.1344  -11019684.25249  -8578788.96446  22594967.9974   22594978.8764
     -2242.5984      -1747.4894
  23331815.0804   -8905992.49249  -6919625.39845  23331815.3014   23331823.9644
      1889.5524       1472.3804
  24269123.1164   -3524358.92749  -2643027.35545  24269122.9584   24269131.8644
      -996.9804       -776.8714
 03  4 11 18  0 29.0000000  0  8G24G10G 5G29G 4G 7G30G13
  21595930.5174  -16746108.10449 -13038018.53947  21595929.9904   21595937.9924
      -690.9834       -538.4264
  20351101.8414  -18678470.65849 -14282597.91547  20351101.2064   20351109.1624
      1210.8354        943.5074
  21944873.2784  -15891815.86449 -11907572.68446  21944872.9954   21944881.3334
        35.7494         27.8604
  24164006.8094   -1423870.09849  -1089769.33045  24164006.4974   24164025.0084
      3037.6934       2367.0214
  22817183.3964  -10015833.86949  -7526472.39046  22817182.6444   22817191.0404
     -1778.5454      -1385.8974
  22595394.8514  -11017441.49649  -8577041.37046  22595394.4624   22595405.9274
     -2243.1754      -1747.9154
  23331455.6174   -8907881.71049  -6921097.51545  23331455.8334   23331464.4324
      1888.7834       1471.7734
  24269312.8904   -3523361.77149  -2642250.35145  24269312.9774   24269321.6254
      -997.5734       -777.3284
 03  4 11 18  0 30.0000000  0  8G24G10G 5G29G 4G 7G30G13
  21596061.9854  -16745417.26349 -13037480.22147  21596061.7584   21596069.0524
      -691.0284       -538.4614
  20350871.4684  -18679681.33649 -14283541.29947  20350870.8744   20350878.5914
      1210.2124        943.0294
  21944866.4914  -15891851.44749 -11907600.41246  21944866.1904   21944874.5744
        35.1014         27.3574
  24163428.6554   -1426908.03649  -1092136.54545  24163428.6884   24163447.2174
      3037.8914       2367.1804
  22817521.8514  -10014055.42449  -7525086.58746  22817521.6224   22817528.5874
     -1778.5794      -1385.9214
  22595821.6934  -11015198.38449  -8575293.49146  22595820.9774   22595832.7084
     -2243.5004      -1748.1784
  23331096.2974   -8909770.41049  -6922569.22745  23331096.4334   23331105.2714
      1888.3144       1471.4034
  24269502.8594   -3522364.01949  -2641472.88345  24269502.4794   24269512.1334
      -998.2434       -777.8474
 03  4 11 18  0 31.0000000  0  8G24G10G 5G29G 4G 7G30G13
  21596193.4704  -16744726.34849 -13036941.84447  21596193.1404   21596200.4634
      -690.9994       -538.4404
  20350641.2234  -18680891.37649 -14284484.18647  20350640.5714   20350648.4004
      1209.6744        942.6044
  21944859.8664  -15891886.41149 -11907627.65046  21944859.4154   21944867.6724
        34.5684         26.9414
  24162850.5694   -1429946.03249  -1094503.80545  24162850.3644   24162869.0954
      3037.9464       2367.2244
  22817860.2534  -10012276.96349  -7523700.78246  22817860.6134   22817867.1054
     -1778.4884      -1385.8204
  22596248.5894  -11012954.84549  -8573545.28746  22596248.2734   22596259.0014
     -2243.8584      -1748.4544
  23330737.0424   -8911658.56649  -6924040.51545  23330737.2984   23330746.0284
      1887.8334       1471.0334
  24269692.9184   -3521365.70149  -2640694.97345  24269692.9844   24269702.0844
      -998.6804       -778.1894
 03  4 11 18  0 32.0000000  0  8G24G10G 5G29G 4G 7G30G13
  21596324.9594  -16744035.45849 -13036403.48947  21596324.5214   21596332.1984
      -691.1794       -538.5764
  20350411.1234  -18682100.84949 -14285426.63347  20350410.5994   20350418.4574
      1208.8744        941.9824
  21944853.3524  -15891920.84449 -11907654.48746  21944852.5154   21944861.3454
        33.8644         26.3954
  24162272.4534   -1432984.20049  -1096871.19945  24162272.1214   24162291.2064
      3037.9374       2367.2124
  22818198.6364  -10010498.58349  -7522315.03046  22818199.3684   22818205.6714
     -1778.6204      -1385.9334
  22596675.5784  -11010710.99849  -8571796.83646  22596674.3404   22596685.9764
     -2244.3244      -1748.8124
  23330377.9164   -8913546.21949  -6925511.41345  23330377.6764   23330386.8144
      1887.0894       1470.4694
  24269883.0424   -3520366.88949  -2639916.68045  24269882.9034   24269892.1444
      -999.3234       -778.6894
 03  4 11 18  0 33.0000000  0  8G24G10G 5G29G 4G 7G30G13
  21596456.4514  -16743344.46849 -13035865.05647  21596455.9964   21596463.7704
      -691.1134       -538.5284
  20350181.1354  -18683309.66749 -14286368.57047  20350180.5534   20350188.2684
      1208.3954        941.6054
  21944846.9484  -15891954.62649 -11907680.81746  21944846.5994   21944854.8514
        33.3814         26.0264
  24161694.2854   -1436022.42249  -1099238.63445  24161694.0864   24161713.0664
      3038.1584       2367.3834
  22818537.0394  -10008720.16049  -7520929.23946  22818537.2234   22818544.4004
     -1778.5334      -1385.8784
  22597102.6914  -11008466.72649  -8570048.06146  22597101.5204   22597113.4814
     -2244.5954      -1749.0314
  23330018.7334   -8915433.30549  -6926981.86945  23330018.4834   23330027.6804
      1886.7234       1470.1794
  24270073.3034   -3519367.47449  -2639137.91445  24270073.3284   24270082.1044
      -999.6134       -778.9234
 03  4 11 18  0 34.0000000  0  8G24G10G 5G29G 4G 7G30G13
  21596587.9634  -16742653.44549 -13035326.59647  21596587.3204   21596595.1784
      -691.0944       -538.5164
  20349951.2644  -18684517.88549 -14287310.03847  20349950.6604   20349958.2824
      1207.8834        941.2084
  21944840.6314  -15891987.83449 -11907706.69446  21944839.8254   21944848.7984
        32.8514         25.6084
  24161116.1344   -1439060.74449  -1101606.14945  24161115.9074   24161135.0804
      3038.3924       2367.5644
  22818875.4574  -10006941.78249  -7519543.49746  22818874.6124   22818883.2164
     -1778.3904      -1385.7644
  22597529.8654  -11006222.10049  -8568299.02046  22597529.2804   22597540.3184
     -2244.8624      -1749.2184
  23329659.7374   -8917319.90149  -6928451.94445  23329659.3934   23329669.0404
      1886.2584       1469.8094
  24270263.5884   -3518367.46649  -2638358.68945  24270263.7394   24270272.4724
     -1000.2624       -779.4244
 03  4 11 18  0 35.0000000  0  8G24G10G 5G29G 4G 7G30G13
  21596719.4684  -16741962.41149 -13034788.13147  21596718.9844   21596726.6634
      -691.0744       -538.4934
  20349721.4964  -18685725.49449 -14288251.02847  20349720.7344   20349728.6434
      1207.2674        940.7304
  21944834.4484  -15892020.46749 -11907732.11746  21944833.8144   21944842.7914
        32.3054         25.1794
  24160537.9404   -1442099.17649  -1103973.74645  24160537.8334   24160557.1154
      3038.4404       2367.6024
  22819213.8894  -10005163.45649  -7518157.79446  22819212.6504   22819221.5664
     -1778.3434      -1385.7204
  22597957.0584  -11003977.13049  -8566549.69246  22597956.4474   22597967.1234
     -2245.2344      -1749.5354
  23329300.7784   -8919205.98449  -6929921.61545  23329300.8634   23329310.5264
      1885.7884       1469.4374
  24270454.1594   -3517366.93649  -2637579.05645  24270453.7254   24270462.6404
     -1000.7724       -779.8174
 03  4 11 18  0 36.0000000  0  8G24G10G 5G29G 4G 7G30G13
  21596850.9874  -16741271.31449 -13034249.61147  21596850.2814   21596858.1944
      -691.0764       -538.4994
  20349491.8554  -18686932.48549 -14289191.54247  20349491.0484   20349498.9094
      1206.7394        940.3174
  21944828.3374  -15892052.49449 -11907757.07446  21944827.8824   21944836.7194
        31.7354         24.7344
  24159959.6584   -1445137.68249  -1106341.40045  24159959.7074   24159978.6534
      3038.6074       2367.7324
  22819552.2764  -10003385.11649  -7516772.08046  22819552.3864   22819560.2574
     -1778.2684      -1385.6594
  22598384.3444  -11001731.75749  -8564800.04946  22598383.6824   22598394.5804
     -2245.5174      -1749.7484
  23328941.9844   -8921091.52949  -6931390.86745  23328941.7284   23328951.6464
      1885.3114       1469.0794
  24270644.7834   -3516365.85149  -2636798.99245  24270644.0694   24270653.3584
     -1001.3354       -780.2594
 03  4 11 18  0 37.0000000  0  8G24G10G 5G29G 4G 7G30G13
  21596982.5054  -16740580.21349 -13033711.09147  21596981.9034   21596990.0954
      -691.0394       -538.4654
  20349262.3164  -18688138.88949 -14290131.59947  20349261.4814   20349269.4094
      1206.1884        939.8914
  21944822.3414  -15892083.96849 -11907781.60446  21944821.4224   21944830.5174
        31.2854         24.3854
  24159381.3684   -1448176.30849  -1108709.15045  24159381.6184   24159400.3374
      3038.7244       2367.8314
  22819890.6394  -10001606.85349  -7515386.42146  22819890.4274   22819898.3874
     -1778.1834      -1385.5824
  22598811.6614  -10999486.05949  -8563050.15846  22598811.3214   22598822.7604
     -2245.8384      -1749.9994
  23328583.4044   -8922976.56949  -6932859.72945  23328583.3284   23328593.0804
      1884.9004       1468.7514
  24270835.4224   -3515364.22449  -2636018.50445  24270834.7484   24270844.2124
     -1001.7884       -780.6104
 03  4 11 18  0 38.0000000  0  8G24G10G 5G29G 4G 7G30G13
  21597113.9954  -16739889.11049 -13033172.56947  21597113.6824   21597121.1134
      -691.3534       -538.7154
  20349032.8704  -18689344.72249 -14291071.20747  20349031.8924   20349039.7734
      1205.2974        939.1854
  21944816.3974  -15892114.87949 -11907805.69246  21944816.0854   21944824.2584
        30.3834         23.6694
  24158803.0294   -1451215.09449  -1111077.02345  24158803.7104   24158822.0524
      3038.5754       2367.7084
  22820228.9864   -9999828.62749  -7514000.79246  22820228.8904   22820237.0004
     -1778.4574      -1385.8084
  22599239.0954  -10997240.03949  -8561300.01846  22599239.1384   22599250.0834
     -2246.4584      -1750.4824
  23328224.8114   -8924861.14649  -6934328.22745  23328225.2124   23328234.3384
      1884.1204       1468.1344
  24271026.2454   -3514362.10749  -2635237.63545  24271025.8864   24271034.6294
     -1002.5374       -781.2024
 03  4 11 18  0 39.0000000  0  8G24G10G 5G29G 4G 7G30G13
  21597245.5084  -16739197.97349 -13032634.02347  21597245.0834   21597252.6584
      -691.4774       -538.8064
  20348803.5134  -18690549.94749 -14292010.33947  20348802.4394   20348810.4834
      1204.6074        938.6494
  21944810.6334  -15892145.20949 -11907829.33046  21944810.4584   21944818.5524
        29.7064         23.1564
  24158224.6964   -1454253.94549  -1113444.94845  24158225.3744   24158243.6124
      3038.5894       2367.7244
  22820567.2734   -9998050.47949  -7512615.22146  22820567.5694   22820574.7474
     -1778.4534      -1385.8054
  22599666.5914  -10994993.63549  -8559549.57846  22599666.9304   22599676.9824
     -2246.9474      -1750.8574
  23327866.2964   -8926745.16849  -6935796.29645  23327866.5854   23327875.0694
      1883.4514       1467.6184
  24271217.1434   -3513359.44449  -2634456.34045  24271216.8794   24271225.8924
     -1003.2204       -781.7264
 03  4 11 18  0 40.0000000  0  8G24G10G 5G29G 4G 7G30G13
  21597377.0444  -16738506.76549 -13032095.41747  21597376.6334   21597384.2144
      -691.6414       -538.9544
  20348574.3094  -18691754.52849 -14292948.97247  20348573.3684   20348581.1154
      1203.8764        938.0784
  21944804.9454  -15892174.93249 -11907852.49146  21944804.4804   21944813.2354
        29.0534         22.6364
  24157646.3644   -1457292.90649  -1115812.96045  24157646.9564   24157665.1054
      3038.6024       2367.7334
  22820905.5274   -9996272.29549  -7511229.62246  22820905.2504   22820913.6254
     -1778.6164      -1385.9434
  22600094.1674  -10992746.84749  -8557798.83746  22600093.0154   22600104.6134
     -2247.4234      -1751.2444
  23327507.9124   -8928628.67149  -6937263.96345  23327507.5824   23327516.7264
      1882.8134       1467.1254
  24271408.0254   -3512356.15049  -2633674.55545  24271408.0614   24271417.2444
     -1003.9834       -782.3254
 03  4 11 18  0 41.0000000  0  8G24G10G 5G29G 4G 7G30G13
  21597508.5514  -16737815.53149 -13031556.79447  21597507.8264   21597515.9044
      -691.6774       -538.9684
  20348345.1934  -18692958.50449 -14293887.13447  20348344.3284   20348352.2644
      1203.2524        937.6014
  21944799.4444  -15892204.06249 -11907875.18746  21944799.1544   21944807.6614
        28.4364         22.1584
  24157068.0984   -1460331.96649  -1118181.04645  24157068.9024   24157086.9794
      3038.7674       2367.8544
  22821243.8874   -9994494.14749  -7509844.06046  22821243.5094   22821251.9234
     -1778.4994      -1385.8254
  22600521.8014  -10990499.71549  -8556047.84146  22600521.0404   22600532.4254
     -2247.7784      -1751.5084
  23327149.6374   -8930511.67549  -6938731.24145  23327149.4804   23327158.3394
      1882.3394       1466.7654
  24271599.0674   -3511352.36849  -2632892.38945  24271599.0144   24271608.2864
     -1004.4834       -782.7124
 03  4 11 18  0 42.0000000  0  8G24G10G 5G29G 4G 7G30G13
  21597640.1004  -16737124.31149 -13031018.18047  21597639.3844   21597647.6324
      -691.9734       -539.2014
  20348116.1594  -18694161.91849 -14294824.85547  20348115.3434   20348122.9734
      1202.3714        936.9114
  21944794.0084  -15892232.65849 -11907897.47146  21944793.4364   21944802.0584
        27.5624         21.4864
  24156489.7794   -1463371.15149  -1120549.23145  24156490.5704   24156508.5654
      3038.3954       2367.5674
  22821582.2314   -9992716.07949  -7508458.55746  22821582.6774   22821589.7944
     -1778.8214      -1386.0934
  22600949.4994  -10988252.24649  -8554296.56646  22600948.9844   22600960.6074
     -2248.4514      -1752.0444
  23326791.4304   -8932394.19249  -6940198.13645  23326790.8414   23326799.5634
      1881.5494       1466.1454
  24271790.2154   -3510348.05149  -2632109.80545  24271789.7274   24271799.1764
     -1005.3174       -783.3634
 03  4 11 18  0 43.0000000  0  8G24G10G 5G29G 4G 7G30G13
  21597771.6384  -16736432.88549 -13030479.40447  21597771.0444   21597779.1254
      -691.5854       -538.8924
  20347887.2994  -18695364.56049 -14295761.97947  20347886.2944   20347894.2074
      1202.1914        936.7764
  21944788.7564  -15892260.50949 -11907919.18046  21944788.4804   21944797.0674
        27.4394         21.3954
  24155911.3974   -1466410.30349  -1122917.39045  24155912.0914   24155930.1344
      3038.9994       2368.0394
  22821920.6024   -9990937.88649  -7507072.95746  22821920.6444   22821927.8984
     -1778.2944      -1385.6804
  22601377.2934  -10986004.26949  -8552544.90246  22601377.2724   22601388.1884
     -2248.3074      -1751.9174
  23326433.3104   -8934276.01549  -6941664.49945  23326432.7394   23326441.8154
      1881.4974       1466.1074
  24271981.5334   -3509343.02949  -2631326.67045  24271980.9514   24271990.2064
     -1005.3834       -783.4234
 03  4 11 18  0 44.0000000  0  8G24G10G 5G29G 4G 7G30G13
  21597903.1874  -16735741.55149 -13029940.70447  21597902.4134   21597910.5254
      -691.7654       -539.0404
  20347658.5124  -18696566.71449 -14296698.72147  20347657.4884   20347665.6324
      1201.4334        936.1804
  21944783.5824  -15892287.89449 -11907940.52046  21944783.2414   21944791.6454
        26.6954         20.7954
  24155333.0724   -1469449.67849  -1125285.72345  24155333.6424   24155351.4634
      3039.0224       2368.0604
  22822258.9934   -9989159.83349  -7505687.46346  22822258.8574   22822266.3884
     -1778.4524      -1385.8044
  22601805.1564  -10983756.01749  -8550793.02246  22601804.3144   22601816.0174
     -2248.8704      -1752.3734
  23326075.1344   -8936157.43849  -6943130.54345  23326074.1974   23326083.8784
      1880.7994       1465.5624
  24272173.0214   -3508337.59549  -2630543.21645  24272172.1214   24272181.3574
     -1006.1874       -784.0424
 03  4 11 18  0 45.0000000  0  8G24G10G 5G29G 4G 7G30G13
  21598034.7294  -16735050.12049 -13029401.93047  21598034.1184   21598041.9234
      -691.6494       -538.9504
  20347429.8544  -18697768.21049 -14297634.95147  20347429.0554   20347437.1474
      1201.0134        935.8554
  21944778.4794  -15892314.64049 -11907961.36246  21944777.8644   21944786.0884
        26.2444         20.4674
  24154754.7274   -1472489.08249  -1127654.07945  24154754.8704   24154772.9204
      3039.3154       2368.2884
  22822597.3894   -9987381.74249  -7504301.93446  22822596.5824   22822606.0884
     -1778.2614      -1385.6674
  22602233.1354  -10981507.37349  -8549040.83646  22602232.5094   22602243.5464
     -2249.0304      -1752.5074
  23325717.1724   -8938038.31449  -6944596.16145  23325716.7474   23325725.2014
      1880.4294       1465.2714
  24272364.4724   -3507331.54649  -2629759.28245  24272363.3794   24272372.4834
     -1006.5084       -784.2934
 03  4 11 18  0 46.0000000  0  8G24G10G 5G29G 4G 7G30G13
  21598166.2734  -16734358.63549 -13028863.10947  21598165.7644   21598173.7134
      -691.3624       -538.7344
  20347201.3194  -18698969.06549 -14298570.68147  20347200.4464   20347208.4604
      1200.6834        935.5964
  21944773.5394  -15892340.76049 -11907981.71446  21944773.1134   21944781.5754
        25.9164         20.2104
  24154176.3794   -1475528.54049  -1130022.47545  24154176.2614   24154194.6574
      3039.6114       2368.5124
  22822935.7214   -9985603.64849  -7502916.40146  22822935.7224   22822944.0414
     -1777.9044      -1385.4004
  22602661.2124  -10979258.33849  -8547288.34646  22602660.3064   22602671.6714
     -2249.1114      -1752.5534
  23325359.3234   -8939918.62449  -6946061.33845  23325359.2164   23325367.5454
      1880.2394       1465.1204
  24272556.0194   -3506324.90649  -2628974.88945  24272554.9504   24272564.4494
     -1006.8354       -784.5464
 03  4 11 18  0 47.0000000  0  8G24G10G 5G29G 4G 7G30G13
  21598297.8324  -16733667.18949 -13028324.31847  21598297.3294   21598305.4554
      -691.6174       -538.9214
  20346972.9064  -18700169.39049 -14299505.99647  20346971.9754   20346980.0044
      1199.8724        934.9644
  21944768.6974  -15892366.39449 -11908001.68646  21944767.8594   21944777.2084
        25.1754         19.6064
  24153597.9574   -1478568.24549  -1132391.06345  24153597.6844   24153615.9344
      3039.5594       2368.4764
  22823274.0414   -9983825.66749  -7501530.96846  22823274.2344   22823282.6364
     -1778.1574      -1385.5684
  22603089.2954  -10977009.01949  -8545535.63246  22603088.6944   22603100.2364
     -2249.7014      -1753.0064
  23325001.5634   -8941798.48649  -6947526.16745  23325001.5324   23325009.3754
      1879.4274       1464.4874
  24272747.7604   -3505317.80649  -2628190.13745  24272746.4774   24272756.2484
     -1007.5654       -785.1174
 03  4 11 18  0 48.0000000  0  8G24G10G 5G29G 4G 7G30G13
  21598429.3744  -16732975.71049 -13027785.50047  21598428.7564   21598436.6294
      -691.7894       -539.0664
  20346744.5994  -18701369.10549 -14300440.84047  20346743.5774   20346751.6524
      1199.1344        934.4004
  21944763.9504  -15892391.42449 -11908021.19246  21944763.5054   21944772.1684
        24.4454         19.0514
  24153019.4644   -1481608.01349  -1134759.70345  24153019.2344   24153037.5274
      3039.5834       2368.4934
  22823612.4234   -9982047.72549  -7500145.56346  22823612.1354   22823620.0084
     -1778.2384      -1385.6334
  22603517.5064  -10974759.32449  -8543782.62546  22603517.0084   22603528.3804
     -2250.2414      -1753.4244
  23324643.9614   -8943677.81949  -6948990.58045  23324643.8434   23324651.1344
      1878.7604       1463.9704
  24272939.5244   -3504310.15749  -2627404.95745  24272938.5814   24272947.7224
     -1008.2334       -785.6374
 03  4 11 18  0 49.0000000  0  8G24G10G 5G29G 4G 7G30G13
  21598560.9404  -16732284.11749 -13027246.60347  21598560.2184   21598568.2544
      -691.5024       -538.8234
  20346516.4124  -18702568.14249 -14301375.15947  20346515.4684   20346523.3534
      1198.8264        934.1534
  21944759.3074  -15892415.81749 -11908040.20846  21944758.7714   21944767.4594
        24.1994         18.8634
  24152441.0564   -1484647.82349  -1137128.37645  24152440.7264   24152459.2274
      3039.9364       2368.7714
  22823950.7104   -9980269.73049  -7498760.11446  22823950.3204   22823958.5244
     -1777.9194      -1385.3964
  22603945.7934  -10972509.20149  -8542029.29646  22603945.1584   22603956.3974
     -2250.2704      -1753.4434
  23324286.4254   -8945556.59849  -6950454.55845  23324286.6904   23324294.2304
      1878.6224       1463.8584
  24273131.4674   -3503301.90949  -2626619.31045  24273130.7294   24273139.5024
     -1008.3374       -785.7184
 03  4 11 18  0 50.0000000  0  8G24G10G 5G29G 4G 7G30G13
  21598692.5014  -16731592.56249 -13026707.73047  21598692.0044   21598699.6964
      -691.7014       -538.9914
  20346288.2944  -18703766.64449 -14302309.05247  20346287.4714   20346295.3534
      1198.0524        933.5454
  21944754.7734  -15892439.67649 -11908058.79646  21944754.7684   21944762.7144
        23.4534         18.2714
  24151862.4874   -1487687.77949  -1139497.16245  24151862.2184   24151880.9954
      3039.8244       2368.6794
  22824288.8884   -9978491.84149  -7497374.74546  22824288.5334   22824296.5394
     -1778.0414      -1385.4714
  22604374.0524  -10970258.78349  -8540275.72346  22604373.3674   22604385.6184
     -2250.8044      -1753.8724
  23323928.9664   -8947434.89849  -6951918.17045  23323928.6244   23323936.7554
      1877.9374       1463.3264
  24273323.4144   -3502293.15349  -2625833.26845  24273322.5224   24273331.2854
     -1009.1024       -786.3144
 03  4 11 18  0 51.0000000  0  8G24G10G 5G29G 4G 7G30G13
  21598824.0454  -16730900.95549 -13026168.81347  21598823.6184   21598831.6614
      -691.8724       -539.1194
  20346060.3134  -18704964.53249 -14303242.46647  20346059.5844   20346067.5484
      1197.3424        932.9894
  21944750.3434  -15892462.94749 -11908076.92746  21944749.8804   21944758.7674
        22.7374         17.7044
  24151284.0254   -1490727.87749  -1141866.05845  24151284.0104   24151302.8004
      3039.8774       2368.7294
  22824627.1444   -9976713.96349  -7495989.38846  22824627.5224   22824634.7084
     -1778.1244      -1385.5594
  22604802.3304  -10968008.00049  -8538521.87346  22604801.1454   22604812.9784
     -2251.2354      -1754.1994
  23323571.6734   -8949312.69149  -6953381.38445  23323571.5444   23323579.5714
      1877.3144       1462.8414
  24273515.4294   -3501283.84449  -2625046.79445  24273514.1764   24273523.5194
     -1009.8574       -786.8964
 03  4 11 18  0 52.0000000  0  8G24G10G 5G29G 4G 7G30G13
  21598955.6254  -16730209.27649 -13025629.84447  21598955.3234   21598963.3814
      -691.7124       -538.9964
  20345832.4974  -18706161.76449 -14304175.37447  20345831.7354   20345839.7764
      1196.9064        932.6584
  21944746.0374  -15892485.58949 -11908094.57246  21944745.3644   21944754.4934
        22.3334         17.4144
  24150705.5234   -1493767.99349  -1144234.96845  24150705.3634   24150724.2694
      3040.1084       2368.9054
  22824965.4034   -9974936.05749  -7494604.01246  22824965.5584   22824972.6754
     -1777.8884      -1385.3594
  22605230.7184  -10965756.80449  -8536767.69946  22605229.6204   22605241.4634
     -2251.4464      -1754.3534
  23323214.4464   -8951189.92649  -6954844.16245  23323215.1494   23323222.4554
      1876.9834       1462.5864
  24273707.6724   -3500273.93149  -2624259.85245  24273705.5174   24273715.6484
     -1010.1804       -787.1484
 03  4 11 18  0 53.0000000  0  8G24G10G 5G29G 4G 7G30G13
  21599087.2054  -16729517.56149 -13025090.85147  21599086.9984   21599095.3434
      -691.6794       -538.9704
  20345604.7794  -18707358.38749 -14305107.80747  20345604.0644   20345611.9604
      1196.3834        932.2464
  21944741.8924  -15892507.64949 -11908111.77046  21944741.4264   21944750.1704
        21.8374         17.0194
  24150127.0124   -1496808.19249  -1146603.94545  24150126.9984   24150145.8304
      3040.3484       2369.0934
  22825303.6784   -9973158.18649  -7493218.66246  22825303.3284   22825311.7374
     -1777.8154      -1385.3104
  22605659.1674  -10963505.23449  -8535013.23546  22605657.8424   22605670.3424
     -2251.7484      -1754.6004
  23322857.2934   -8953066.63149  -6956306.52445  23322857.9334   23322866.2564
      1876.4784       1462.1834
  24273899.9234   -3499263.46049  -2623472.47145  24273897.8154   24273907.4744
     -1010.6634       -787.5284
 03  4 11 18  0 54.0000000  0  8G24G10G 5G29G 4G 7G30G13
  21599218.8154  -16728825.87649 -13024551.87647  21599218.7674   21599226.3444
      -691.9694       -539.2004
  20345377.1554  -18708554.46649 -14306039.81647  20345376.1914   20345384.3464
      1195.5114        931.5634
  21944737.8104  -15892529.18149 -11908128.54746  21944737.2114   21944746.4434
        20.9864         16.3564
  24149548.4824   -1499848.56649  -1148973.05745  24149548.4284   24149567.0734
      3040.1804       2368.9594
  22825641.9384   -9971380.38449  -7491833.36446  22825642.0194   22825649.7024
     -1778.0034      -1385.4624
  22606087.6814  -10961253.38049  -8533258.54446  22606086.3364   22606098.4214
     -2252.3274      -1755.0454
  23322500.1594   -8954942.91649  -6957768.56345  23322501.2994   23322509.1754
      1875.8274       1461.6754
  24274092.3524   -3498252.56549  -2622684.76045  24274089.9664   24274099.7164
     -1011.4744       -788.1544
 03  4 11 18  0 55.0000000  0  8G24G10G 5G29G 4G 7G30G13
  21599350.3934  -16728134.14349 -13024012.86447  21599350.1244   21599357.8394
      -692.0204       -539.2344
  20345149.6784  -18709749.91849 -14306971.33647  20345148.7384   20345156.7054
      1194.8914        931.0844
  21944733.8404  -15892550.11549 -11908144.85946  21944733.1474   21944742.1654
        20.3634         15.8754
  24148969.9844   -1502889.00749  -1151342.22245  24148970.5484   24148988.3674
      3040.2824       2369.0364
  22825980.1694   -9969602.60449  -7490448.08146  22825980.0434   22825988.0634
     -1778.0204      -1385.4744
  22606516.2914  -10959001.14249  -8531503.56846  22606515.3244   22606526.1704
     -2252.6894      -1755.3324
  23322143.2034   -8956818.61549  -6959230.15245  23322144.0314   23322151.8484
      1875.2484       1461.2364
  24274284.8044   -3497241.03249  -2621896.55345  24274282.1074   24274292.6984
     -1012.0274       -788.5964
 03  4 11 18  0 56.0000000  0  8G24G10G 5G29G 4G 7G30G13
  21599482.0244  -16727442.35149 -13023473.80047  21599482.0474   21599489.4874
      -692.0704       -539.2684
  20344922.3004  -18710944.73349 -14307902.35747  20344921.4504   20344929.5374
      1194.2424        930.5814
  21944729.9974  -15892570.44449 -11908160.69446  21944729.4134   21944738.2034
        19.7424         15.3854
  24148391.4334   -1505929.54849  -1153711.46345  24148392.3194   24148409.9374
      3040.3774       2369.1134
  22826318.4974   -9967824.84849  -7489062.81746  22826318.5454   22826326.6404
     -1778.0284      -1385.4834
  22606944.9934  -10956748.52149  -8529748.28746  22606945.4224   22606955.0964
     -2253.0814      -1755.6464
  23321786.3684   -8958693.80449  -6960691.33845  23321787.4164   23321794.8054
      1874.6404       1460.7624
  24274477.2784   -3496228.95849  -2621107.92845  24274474.2954   24274485.3434
     -1012.6454       -789.0704
 03  4 11 18  0 57.0000000  0  8G24G10G 5G29G 4G 7G30G13
  21599613.6434  -16726750.48849 -13022934.68547  21599613.5144   21599621.5114
      -691.9344       -539.1674
  20344695.0484  -18712138.90349 -14308832.87647  20344694.3134   20344702.3324
      1193.8194        930.2474
  21944726.2644  -15892590.14549 -11908176.04946  21944725.6704   21944733.8014
        19.3434         15.0804
  24147812.8454   -1508970.14049  -1156080.74645  24147813.5474   24147831.4124
      3040.6184       2369.2974
  22826656.7904   -9966047.07949  -7487677.54046  22826656.5584   22826665.1964
     -1777.7834      -1385.2884
  22607373.7684  -10954495.51249  -8527992.70046  22607372.3594   22607384.6814
     -2253.3064      -1755.8234
  23321429.6084   -8960568.41749  -6962152.07545  23321430.4554   23321438.2564
      1874.3074       1460.4934
  24274669.8204   -3495216.28149  -2620318.82845  24274666.9744   24274677.8934
     -1013.0394       -789.3784
 03  4 11 18  0 58.0000000  0  8G24G10G 5G29G 4G 7G30G13
  21599745.2294  -16726058.61749 -13022395.57147  21599745.3734   21599753.4244
      -691.9304       -539.1614
  20344467.9484  -18713332.49249 -14309762.94647  20344467.2754   20344475.3324
      1193.2244        929.7864
  21944722.6564  -15892609.29549 -11908190.97846  21944722.1784   21944730.8884
        18.8014         14.6504
  24147234.2534   -1512010.87449  -1158450.13645  24147234.5674   24147252.8234
      3040.7574       2369.4074
  22826995.0884   -9964269.37349  -7486292.31846  22826995.1144   22827003.4204
     -1777.7544      -1385.2744
  22607802.5414  -10952242.15249  -8526236.84146  22607801.6004   22607812.5724
     -2253.6444      -1756.0614
  23321072.8244   -8962442.56449  -6963612.44945  23321073.3214   23321081.7314
      1873.8244       1460.1204
  24274862.4744   -3494203.11249  -2619529.34645  24274859.6024   24274870.9814
     -1013.5414       -789.7714
 03  4 11 18  0 59.0000000  0  8G24G10G 5G29G 4G 7G30G13
  21599876.8744  -16725366.68149 -13021856.39847  21599876.7954   21599884.8144
      -691.8404       -539.0974
  20344240.9514  -18714525.44249 -14310692.52247  20344240.2144   20344248.2484
      1192.7764        929.4414
  21944719.1184  -15892627.82649 -11908205.42146  21944719.0584   21944727.2144
        18.4044         14.3514
  24146655.6204   -1515051.66949  -1160819.58045  24146656.0844   24146674.0224
      3040.9074       2369.5284
  22827333.4164   -9962491.63349  -7484907.07046  22827333.8854   22827342.6914
     -1777.6144      -1385.1524
  22608231.3844  -10949988.39849  -8524480.68046  22608230.2444   22608241.8014
     -2253.8614      -1756.2444
  23320716.3484   -8964316.12549  -6965072.36845  23320716.9894   23320725.8094
      1873.4234       1459.8134
  24275055.2234   -3493189.33849  -2618739.39345  24275052.7364   24275064.6034
     -1013.9274       -790.0734
 03  4 11 18  1  0.0000000  0  8G24G10G 5G29G 4G 7G30G13
  21600008.5524  -16724674.80449 -13021317.27247  21600008.5974   21600016.5974
      -692.1884       -539.3714
  20344014.0694  -18715717.87949 -14311621.69147  20344013.3004   20344021.3014
      1191.8434        928.7074
  21944715.6674  -15892645.87349 -11908219.48046  21944715.0144   21944723.3744
        17.4684         13.6044
  24146076.9364   -1518092.67449  -1163189.18245  24146077.1034   24146095.6524
      3040.7074       2369.3684
  22827671.6994   -9960714.03949  -7483521.93246  22827671.9344   22827680.4554
     -1777.9304      -1385.4074
  22608660.2944  -10947734.37549  -8522724.29546  22608658.6024   22608670.7954
     -2254.5344      -1756.7854
  23320359.8174   -8966189.27849  -6966531.97145  23320360.6114   23320370.1014
      1872.6424       1459.1954
  24275248.2034   -3492175.10949  -2617949.08545  24275246.0064   24275257.7574
     -1014.8384       -790.7794
 03  4 11 18  1  1.0000000  0  8G24G10G 5G29G 4G 7G30G13
  21600140.2144  -16723982.85049 -13020778.09047  21600140.0854   21600148.3544
      -692.2494       -539.4084
  20343787.3124  -18716909.66049 -14312550.34947  20343786.5704   20343794.5364
      1191.1664        928.1794
  21944712.3534  -15892663.27749 -11908233.04446  21944711.3604   21944720.2704
