     2              OBSERVATION DATA                        RINEX VERSION / TYPE
ASHTORIN            MSB                 15 - SEP - 02 14:55 PGM / RUN BY / DATE 
First Stocker data set on 09/15/02                          COMMENT             
STKR                                                        MARKER NAME         
001                                                         MARKER NUMBER       
Diggle              OU/EECS/AEC                             OBSERVER / AGENCY   
                    Z-XII3              1L001D0             REC # / TYPE / VERS 
                                                            ANT # / TYPE        
   678453.9803 -4893811.7938  4020507.7300                  APPROX POSITION XYZ 
        0.0001        0.0000        0.0000                  ANTENNA: DELTA H/E/N
     1     1                                                WAVELENGTH FACT L1/2
     7    L1    L2    C1    P1    P2    D1    D2            # / TYPES OF OBSERV 
     5                                                      INTERVAL            
  2002     9    15     0     0    0.000000                  TIME OF FIRST OBS   
  2002     9    15     0    59   54.998000                  TIME OF LAST OBS    
                                                            END OF HEADER       
 02  9 15  0  0  0.0000000  0  8  3 22 31 13 27  1  8  2             0.000052196
 -27489049.312 9 -20782825.55448  21376365.089    21376365.5614   21376375.1594
     -1315.439       -1025.016
 -22056783.473 9 -17169246.20246  23961242.987    23961243.0724   23961254.2574
     -2345.200       -1827.426
 -34964720.767 9 -27227217.72948  19977863.507    19977863.6834   19977872.3754
      1377.908        1073.699
 -29943071.696 9 -23014209.80748  21564342.255    21564343.1394   21564351.8974
     -1314.379       -1024.184
 -28270249.576 9 -21772134.57448  21297677.485    21297677.9764   21297687.2954
      2920.903        2276.025
 -19703828.565 9 -15332266.48647  22876658.256    22876658.8404   22876671.4214
     -2661.575       -2073.946
  -7287419.514 9  -5659896.94247  22945640.854    22945641.0564   22945653.6254
      3954.718        3081.614
 -26145735.194 9 -20347501.36947  22955968.998    22955969.0334   22955979.9204
     -1193.252        -929.805
 02  9 15  0  0  5.0000000  0  8  3 22 31 13 27  1  8  2             0.000049865
 -27482468.152 9 -20777697.36748  21377617.467    21377617.9354   21377627.5364
     -1317.272       -1026.462
 -22045059.770 9 -17160110.85646  23963473.979    23963474.0424   23963485.2094
     -2344.638       -1826.984
 -34971604.073 9 -27232581.33748  19976553.649    19976553.8134   19976562.4894
      1375.156        1071.538
 -29936495.291 9 -23009085.33748  21565593.691    21565594.5944   21565603.3364
     -1316.440       -1025.801
 -28284853.347 9 -21783514.12648  21294898.487    21294898.9844   21294908.2724
      2920.117        2275.408
 -19690520.147 9 -15321896.31347  22879190.801    22879191.3664   22879203.9604
     -2662.053       -2074.335
  -7307193.743 9  -5675305.40547  22941877.923    22941878.1364   22941890.7164
      3954.755        3081.612
 -26139769.827 9 -20342853.03347  22957104.186    22957104.2004   22957115.0894
     -1193.137        -929.718
 02  9 15  0  0 10.0000000  0  8  3 22 31 13 27  1  8  2             0.000047532
 -27475878.328 9 -20772562.44648  21378871.516    21378871.9444   21378881.5624
     -1319.309       -1028.037
 -22033339.149 9 -17150977.90846  23965704.359    23965704.3874   23965715.6124
     -2344.324       -1826.745
 -34978473.785 9 -27237934.35448  19975246.366    19975246.5374   19975255.1944
      1372.099        1069.165
 -29929908.829 9 -23003953.03748  21566847.064    21566847.9704   21566856.7054
     -1318.756       -1027.599
 -28299453.354 9 -21794890.74948  21292120.216    21292120.7054   21292129.9694
      2919.048        2274.581
 -19677209.498 9 -15311524.40047  22881723.798    22881724.3104   22881736.9284
     -2662.816       -2074.927
  -7326968.695 9  -5690714.42847  22938114.856    22938115.0684   22938127.6554
      3954.621        3081.509
 -26133805.516 9 -20338205.51547  22958239.170    22958239.1574   22958250.0684
     -1193.221        -929.780
 02  9 15  0  0 15.0000000  0  8  3 22 31 13 27  1  8  2             0.000045200
 -27469274.978 9 -20767416.97448  21380128.128    21380128.5394   21380138.1484
     -1321.337       -1029.610
 -22021616.842 9 -17141843.65546  23967935.076    23967935.0294   23967946.3184
     -2343.966       -1826.472
 -34985325.032 9 -27243272.98448  19973942.594    19973942.7754   19973951.3904
      1369.110        1066.834
 -29923307.486 9 -22998809.14148  21568103.259    21568104.1574   21568112.8764
     -1321.075       -1029.406
 -28314044.708 9 -21806260.62748  21289343.598    21289344.0834   21289353.3124
      2917.974        2273.736
 -19663891.827 9 -15301147.01547  22884258.122    22884258.5884   22884271.2164
     -2663.568       -2075.500
  -7346739.500 9  -5706120.22447  22934352.581    22934352.7784   22934365.4004
      3954.509        3081.424
 -26127837.400 9 -20333555.02947  22959374.849    22959374.8374   22959385.7574
     -1193.322        -929.869
 02  9 15  0  0 20.0000000  0  8  3 22 31 13 27  1  8  2             0.000042866
 -27462661.692 9 -20762263.76048  21381386.614    21381387.0024   21381396.6334
     -1324.320       -1031.936
 -22009896.340 8 -17132710.79646  23970165.469    23970165.3494   23970176.6954
     -2344.630       -1826.982
 -34992161.421 9 -27248600.03548  19972641.643    19972641.8404   19972650.4284
      1365.108        1063.715
 -29916694.845 9 -22993656.43848  21569361.623    21569362.5014   21569371.2144
     -1324.329       -1031.950
 -28328630.973 9 -21817626.54248  21286567.945    21286568.4224   21286577.6254
      2915.979        2272.185
 -19650570.718 9 -15290766.94747  22886793.102    22886793.5304   22886806.1434
     -2665.249       -2076.814
  -7366509.702 9  -5721525.54647  22930590.418    22930590.6064   22930603.2564
      3953.307        3080.508
 -26121869.054 9 -20328904.37147  22960510.552    22960510.5484   22960521.4914
     -1194.368        -930.699
 02  9 15  0  0 25.0000000  0  8  3 22 31 13 27  1  8  2             0.000040532
 -27456036.854 9 -20757101.55148  21382647.294    21382647.6714   21382657.3084
     -1326.582       -1033.698
 -21998176.030 8 -17123578.09246  23972395.817    23972395.6354   23972406.9924
     -2344.481       -1826.876
 -34998981.264 9 -27253914.19748  19971343.831    19971344.0664   19971352.6054
      1361.868        1061.198
 -29910069.257 9 -22988493.65548  21570622.446    21570623.3264   21570631.9984
     -1326.837       -1033.889
 -28343210.519 9 -21828987.21548  21283793.576    21283794.0424   21283803.2254
      2914.695        2271.190
 -19637244.509 9 -15280382.91447  22889329.028    22889329.4404   22889342.0394
     -2666.219       -2077.571
  -7386277.638 9  -5736929.11247  22926828.665    22926828.8664   22926841.5404
      3952.945        3080.225
 -26115898.821 9 -20324252.23947  22961646.599    22961646.6214   22961657.6064
     -1194.669        -930.911
 02  9 15  0  0 30.0000000  0  8  3 22 31 13 27  1  8  2             0.000038200
 -27449397.209 9 -20751927.81548  21383910.778    21383911.1564   21383920.7964
     -1329.564       -1036.015
 -21986452.686 8 -17114443.01946  23974626.667    23974626.4804   23974637.8704
     -2345.161       -1827.398
 -35005781.353 9 -27259212.95948  19970049.790    19970050.0464   19970058.5624
      1357.875        1058.091
 -29903427.519 9 -22983318.27548  21571886.365    21571887.2274   21571895.8654
     -1330.129       -1036.462
 -28357780.131 9 -21840340.15148  21281021.099    21281021.5394   21281030.7084
      2912.673        2269.621
 -19623910.010 9 -15269992.40747  22891866.535    22891866.9354   22891879.5144
     -2667.916       -2078.891
  -7406040.091 9  -5752328.39747  22923067.966    22923068.1654   22923080.8454
      3951.829        3079.352
 -26109923.474 9 -20319596.12547  22962783.608    22962783.6624   22962794.6614
     -1195.742        -931.748
 02  9 15  0  0 35.0000000  0  8  3 22 31 13 27  1  8  2             0.000035866
 -27442746.362 9 -20746745.33448  21385176.407    21385176.7824   21385186.4194
     -1330.839       -1037.021
 -21974729.886 8 -17105308.36946  23976857.358    23976857.1614   23976868.6564
     -2344.104       -1826.582
 -35012565.272 9 -27264499.12048  19968758.848    19968759.1044   19968767.5764
      1355.627        1056.322
 -29896773.206 9 -22978133.10448  21573152.678    21573153.5404   21573162.1304
     -1331.648       -1037.651
 -28372343.290 9 -21851688.05748  21278249.842    21278250.2684   21278259.4284
      2912.353        2269.354
 -19610570.779 9 -15259598.22847  22894404.916    22894405.3204   22894417.9004
     -2667.833       -2078.818
  -7425800.725 9  -5767726.27947  22919307.624    22919307.8414   22919320.5084
      3952.436        3079.829
 -26103946.599 9 -20314938.81947  22963920.928    22963920.9964   22963932.0434
     -1195.046        -931.209
 02  9 15  0  0 40.0000000  0  8  3 22 31 13 27  1  8  2             0.000033531
 -27436086.815 9 -20741556.07448  21386443.693    21386444.0614   21386453.7064
     -1333.383       -1038.992
 -21963010.153 8 -17096176.10846  23979087.439    23979087.2684   23979098.8744
     -2344.204       -1826.645
 -35019335.481 9 -27269774.60248  19967470.533    19967470.7784   19967479.2244
      1352.052        1053.548
 -29890108.806 9 -22972940.07048  21574420.932    21574421.7684   21574430.3244
     -1334.500       -1039.870
 -28386902.559 9 -21863032.93348  21275479.289    21275479.7144   21275488.8904
      2910.736        2268.109
 -19597229.338 9 -15249202.31247  22896943.742    22896944.1364   22896956.6784
     -2669.118       -2079.820
  -7445561.907 9  -5783124.56947  22915547.176    22915547.3694   22915560.0524
      3951.714        3079.242
 -26097970.675 9 -20310282.25247  22965058.079    22965058.1414   22965069.2424
     -1195.669        -931.680
 02  9 15  0  0 45.0000000  0  8  3 22 31 13 27  1  8  2             0.000031197
 -27429414.696 9 -20736357.02548  21387713.368    21387713.7194   21387723.3724
     -1336.125       -1041.138
 -21951289.523 8 -17087043.15846  23981317.709    23981317.5714   23981329.2814
     -2344.660       -1827.008
 -35026088.076 9 -27275036.35948  19966185.568    19966185.7964   19966194.2174
      1348.306        1050.617
 -29883430.445 9 -22967736.15148  21575691.851    21575692.6594   21575701.1714
     -1337.505       -1042.215
 -28401453.954 9 -21874371.67448  21272710.240    21272710.6714   21272719.8474
      2908.960        2266.714
 -19583881.818 9 -15238801.66947  22899483.715    22899484.1074   22899496.6504
     -2670.567       -2080.962
  -7465319.734 9  -5798520.26247  22911787.377    22911787.5474   22911800.2274
      3950.860        3078.568
 -26091991.795 9 -20305623.40147  22966195.803    22966195.8624   22966207.0044
     -1196.490        -932.334
 02  9 15  0  0 50.0000000  0  8  3 22 31 13 27  1  8  2             0.000028863
 -27422730.074 9 -20731148.22348  21388985.424    21388985.7694   21388995.4184
     -1338.244       -1042.783
 -21939568.173 8 -17077909.65246  23983548.128    23983548.0364   23983559.8444
     -2344.332       -1826.750
 -35032823.195 9 -27280284.49848  19964903.929    19964904.1654   19964912.5304
      1345.244        1048.237
 -29876738.215 9 -22962521.43548  21576965.391    21576966.1834   21576974.6724
     -1339.868       -1044.047
 -28415997.564 9 -21885704.35048  21269942.669    21269943.1214   21269952.2874
      2907.814        2265.828
 -19570528.301 9 -15228396.34947  22902024.862    22902025.2104   22902037.7554
     -2671.352       -2081.563
  -7485074.289 9  -5813913.39647  22908028.187    22908028.3554   22908041.0204
      3950.576        3078.366
 -26086010.083 9 -20300962.32648  22967334.081    22967334.1344   22967345.3224
     -1196.664        -932.470
 02  9 15  0  0 55.0000000  0  8  3 22 31 13 27  1  8  2             0.000026529
 -27416033.622 9 -20725930.21548  21390259.694    21390260.0694   21390269.7084
     -1340.399       -1044.465
 -21927846.626 8 -17068776.00446  23985778.612    23985778.5324   23985790.4984
     -2344.253       -1826.678
 -35039541.440 9 -27285519.48848  19963625.513    19963625.7304   19963634.0644
      1342.063        1045.757
 -29870032.774 9 -22957296.42548  21578241.448    21578242.2064   21578250.6684
     -1342.315       -1045.957
 -28430534.137 9 -21897031.54148  21267176.450    21267176.9014   21267186.0914
      2906.574        2264.863
 -19557169.448 9 -15217986.87747  22904567.013    22904567.3124   22904579.8464
     -2672.251       -2082.255
  -7504826.189 9  -5829304.46347  22904269.513    22904269.6884   22904282.3144
      3950.250        3078.123
 -26080026.163 9 -20296299.54648  22968472.790    22968472.8524   22968484.0654
     -1196.900        -932.651
 02  9 15  0  1  0.0000000  0  8  3 22 31 13 27  1  8  2             0.000024195
 -27409325.242 9 -20720702.90648  21391536.254    21391536.6384   21391546.2754
     -1342.227       -1045.892
 -21916124.893 8 -17059642.21046  23988009.146    23988009.0664   23988021.1574
     -2343.726       -1826.278
 -35046242.737 9 -27290741.27448  19962350.321    19962350.5184   19962358.8244
      1339.222        1043.548
 -29863314.050 9 -22952061.06148  21579519.982    21579520.7374   21579529.2014
     -1344.432       -1047.617
 -28445063.436 9 -21908353.06748  21264411.604    21264412.0694   21264421.2594
      2905.662        2264.142
 -19543805.148 9 -15207573.16147  22907110.193    22907110.4914   22907122.9764
     -2672.808       -2082.707
  -7524575.305 9  -5844693.35947  22900511.362    22900511.5374   22900524.1714
      3950.240        3078.117
 -26074039.931 9 -20291634.94948  22969611.950    22969612.0084   22969623.2644
     -1196.812        -932.584
 02  9 15  0  1  5.0000000  0  8  3 22 31 13 27  1  8  2             0.000021861
 -27402604.527 9 -20715465.98548  21392815.164    21392815.5554   21392825.1804
     -1345.139       -1048.151
 -21904402.531 8 -17050507.91146  23990239.810    23990239.7494   23990251.9074
     -2344.222       -1826.658
 -35052926.662 9 -27295949.51948  19961078.421    19961078.6134   19961086.9014
      1335.313        1040.504
 -29856581.623 9 -22946815.02548  21580801.110    21580801.8664   21580810.3314
     -1347.607       -1050.075
 -28459585.084 9 -21919668.62548  21261648.203    21261648.6854   21261657.9064
      2903.676        2262.603
 -19530435.036 9 -15197154.90247  22909654.471    22909654.7594   22909667.2044
     -2674.389       -2083.930
  -7544321.274 9  -5860079.80047  22896753.794    22896753.9834   22896766.6354
      3949.199        3077.303
 -26068050.975 9 -20286968.23248  22970751.639    22970751.7034   22970762.9694
     -1197.808        -933.357
 02  9 15  0  1 10.0000000  0  8  3 22 31 13 27  1  8  2             0.000019527
 -27395870.885 9 -20710218.99248  21394096.508    21394096.9094   21394106.5474
     -1348.434       -1050.741
 -21892678.969 8 -17041372.67246  23992470.709    23992470.6724   23992482.8714
     -2345.272       -1827.490
 -35059592.630 9 -27301143.77048  19959809.942    19959810.1094   19959818.3934
      1330.988        1037.126
 -29849834.941 9 -22941557.87848  21582084.924    21582085.7184   21582094.1794
     -1351.162       -1052.847
 -28474098.458 9 -21930977.73848  21258886.379    21258886.8754   21258896.1204
      2901.385        2260.813
 -19517058.524 9 -15186731.66447  22912199.958    22912200.2244   22912212.6454
     -2676.350       -2085.477
  -7564063.493 9  -5875463.31547  22892996.908    22892997.1094   22893009.7964
      3947.717        3076.127
 -26062058.733 9 -20282298.94648  22971891.963    22971892.0164   22971903.2994
     -1199.164        -934.429
 02  9 15  0  1 15.0000000  0  8  3 22 31 13 27  1  8  2             0.000017193
 -27389126.839 9 -20704963.89148  21395379.829    21395380.2494   21395389.8834
     -1348.918       -1051.113
 -21880956.695 9 -17032238.43746  23994701.359    23994701.3274   23994713.5514
     -2343.442       -1826.056
 -35066243.112 9 -27306325.96048  19958544.386    19958544.5544   19958552.8454
      1329.483        1035.955
 -29843076.525 9 -22936291.58448  21583370.979    21583371.7834   21583380.2524
     -1351.906       -1053.427
 -28488606.103 9 -21942282.38948  21256125.650    21256126.1584   21256135.4284
      2901.802        2261.138
 -19503678.149 9 -15176305.40947  22914746.159    22914746.4364   22914758.8134
     -2675.490       -2084.814
  -7583804.452 9  -5890845.85647  22889240.243    22889240.5094   22889253.1964
      3949.054        3077.166
 -26056065.659 9 -20277629.02248  22973032.456    22973032.4964   22973043.7874
     -1197.728        -933.292
 02  9 15  0  1 20.0000000  0  8  3 22 31 13 27  1  8  2             0.000014859
 -27382371.039 9 -20699699.63248  21396665.400    21396665.8334   21396675.4434
     -1352.768       -1054.099
 -21869234.361 9 -17023104.14346  23996932.048    23996932.0374   23996944.2654
     -2344.968       -1827.253
 -35072876.762 9 -27311495.02948  19957282.050    19957282.1884   19957290.4994
      1324.622        1032.168
 -29836304.969 9 -22931015.05648  21584659.539    21584660.3564   21584668.8294
     -1356.054       -1056.669
 -28503106.625 9 -21953581.48848  21253366.281    21253366.8134   21253376.0994
      2898.874        2258.864
 -19490292.522 9 -15165875.07347  22917293.346    22917293.6304   22917305.9754
     -2678.056       -2086.795
  -7603542.775 9  -5906226.34747  22885484.096    22885484.4054   22885497.1054
      3947.003        3075.586
 -26050070.426 9 -20272957.40648  22974173.364    22974173.3764   22974184.6594
     -1199.672        -934.816
 02  9 15  0  1 25.0000000  0  8  3 22 31 13 27  1  8  2             0.000012526
 -27375600.809 9 -20694424.12748  21397953.737    21397954.1644   21397963.7514
     -1354.510       -1055.449
 -21857509.271 8 -17013967.71646  23999163.275    23999163.2704   23999175.5074
     -2344.348       -1826.762
 -35079490.940 9 -27316648.93048  19956023.402    19956023.5354   19956031.8594
      1321.862        1030.025
 -29829517.632 9 -22925726.23148  21585951.108    21585951.9584   21585960.3984
     -1358.031       -1058.203
 -28517597.292 9 -21964872.90948  21250608.792    21250609.3454   21250618.6524
      2898.034        2258.211
 -19476899.036 9 -15155438.60347  22919842.012    22919842.3284   22919854.6184
     -2678.515       -2087.139
  -7623275.799 9  -5921602.71347  22881728.967    22881729.3124   22881742.0054
      3947.116        3075.676
 -26044070.361 9 -20268282.03248  22975315.175    22975315.1704   22975326.4394
     -1199.522        -934.697
 02  9 15  0  1 30.0000000  0  8  3 22 31 13 27  1  8  2             0.000010193
 -27368818.951 9 -20689139.56048  21399244.293    21399244.7074   21399254.2774
     -1357.272       -1057.595
 -21845784.299 9 -17004831.37846  24001394.484    24001394.4744   24001406.7184
     -2344.713       -1827.052
 -35086088.360 9 -27321789.77248  19954767.939    19954768.0554   19954776.4064
      1318.064        1027.072
 -29822717.284 9 -22920427.26548  21587245.167    21587246.0214   21587254.4474
     -1361.086       -1060.584
 -28532080.924 9 -21976158.84948  21247852.656    21247853.2164   21247862.5314
      2896.171        2256.758
 -19463500.445 9 -15144998.15247  22922391.651    22922391.9804   22922404.2704
     -2679.927       -2088.238
  -7643006.209 9  -5936977.02747  22877974.350    22877974.7004   22877987.3964
      3946.139        3074.933
 -26038068.242 9 -20263605.05447  22976457.377    22976457.3304   22976468.5924
     -1200.345        -935.335
 02  9 15  0  1 35.0000000  0  8  3 22 31 13 27  1  8  2             0.000007860
 -27362026.464 9 -20683846.71548  21400536.863    21400537.2714   21400546.8324
     -1359.824       -1059.604
 -21834060.328 9 -16995695.81746  24003625.530    24003625.4964   24003637.7454
     -2344.968       -1827.251
 -35092670.062 9 -27326918.36248  19953515.435    19953515.5734   19953523.9634
      1314.489        1024.268
 -29815904.973 9 -22915118.98048  21588541.514    21588542.3704   21588550.7564
     -1363.912       -1062.787
 -28546558.501 9 -21987440.06948  21245097.671    21245098.2314   21245107.5604
      2894.541        2255.484
 -19450097.749 9 -15134554.50547  22924942.073    22924942.4424   22924954.7204
     -2681.176       -2089.226
  -7662735.086 9  -5952350.15047  22874220.035    22874220.3834   22874233.0944
      3945.401        3074.340
 -26032065.070 9 -20258927.26047  22977599.766    22977599.6934   22977610.9494
     -1200.970        -935.813
 02  9 15  0  1 40.0000000  0  8  3 22 31 13 27  1  8  2             0.000005526
 -27355222.170 9 -20678544.67448  21401831.685    21401832.0884   21401841.6274
     -1361.644       -1061.005
 -21822336.180 9 -16986560.11746  24005856.614    24005856.5494   24005868.8084
     -2344.494       -1826.880
 -35099234.832 9 -27332033.76648  19952266.142    19952266.3124   19952274.7344
      1311.649        1022.063
 -29809079.503 9 -22909800.43148  21589840.376    21589841.2054   21589849.5784
     -1366.007       -1064.422
 -28561028.798 9 -21998715.61348  21242344.087    21242344.6284   21242353.9834
      2893.611        2254.758
 -19436689.767 9 -15124106.74847  22927493.514    22927493.8894   22927506.1894
     -2681.731       -2089.652
  -7682461.168 9  -5967721.09147  22870466.278    22870466.6074   22870479.3264
      3945.368        3074.309
 -26026059.611 9 -20254247.67047  22978742.576    22978742.4754   22978753.7244
     -1200.905        -935.779
 02  9 15  0  1 45.0000000  0  8  3 22 31 13 27  1  8  2             0.000003193
 -27348405.708 9 -20673233.13948  21403128.827    21403129.2324   21403138.7604
     -1364.576       -1063.309
 -21810611.492 9 -16977424.00146  24008087.765    24008087.7124   24008099.9864
     -2345.054       -1827.311
 -35105782.275 9 -27337135.66248  19951020.146    19951020.3534   19951028.8034
      1307.629        1018.928
 -29802240.492 9 -22904471.33548  21591141.822    21591142.6294   21591150.9794
     -1369.253       -1066.964
 -28575491.412 9 -22009985.17648  21239591.945    21239592.4824   21239601.8614
      2891.534        2253.142
 -19423276.128 9 -15113654.58447  22930046.037    22930046.4284   22930058.7414
     -2683.381       -2090.950
  -7702184.066 9  -5983089.56447  22866713.152    22866713.4284   22866726.1534
      3944.206        3073.397
 -26020051.499 9 -20249566.03147  22979885.864    22979885.7684   22979897.0144
     -1201.969        -936.601
 02  9 15  0  1 50.0000000  0  8  3 22 31 13 27  1  8  2             0.000000860
 -27341577.283 9 -20667912.29448  21404428.248    21404428.6224   21404438.1504
     -1366.810       -1065.043
 -21798886.440 9 -16968287.60146  24010318.974    24010318.9534   24010331.2314
     -2344.941       -1827.229
 -35112312.648 9 -27342224.26548  19949777.405    19949777.6404   19949786.1244
      1304.455        1016.460
 -29795388.157 9 -22899131.86748  21592445.789    21592446.5794   21592454.9034
     -1371.698       -1068.853
 -28589946.597 9 -22021248.94648  21236841.203    21236841.7444   21236851.1464
      2890.257        2252.147
 -19409857.078 9 -15103198.19847  22932599.609    22932600.0154   22932612.3324
     -2684.255       -2091.632
  -7721904.020 9  -5998455.72947  22862960.556    22862960.8084   22862973.5484
      3943.860        3073.145
 -26014040.965 9 -20244882.49747  22981029.603    22981029.5064   22981040.7614
     -1202.230        -936.808
 02  9 15  0  1 55.0000000  0  8  3 22 31 13 27  1  8  2            -0.000001474
 -27334737.844 9 -20662582.86348  21405729.760    21405730.1414   21405739.6244
     -1370.963       -1068.274
 -21787162.020 9 -16959151.69146  24012550.068    24012550.0364   24012562.3344
     -2346.797       -1828.671
 -35118826.828 9 -27347300.23648  19948537.762    19948538.0194   19948546.5304
      1299.299        1012.446
 -29788523.437 9 -22893782.73848  21593752.117    21593752.8834   21593761.1844
     -1376.135       -1072.309
 -28604395.180 9 -22032507.56948  21234091.707    21234092.2614   21234101.6904
      2886.993        2249.602
 -19396433.532 9 -15092738.30247  22935154.064    22935154.4434   22935166.7954
     -2687.116       -2093.846
  -7741621.904 9  -6013820.28047  22859208.349    22859208.5744   22859221.3234
      3941.421        3071.227
 -26008028.910 9 -20240197.77947  22982173.639    22982173.5494   22982184.7904
     -1204.499        -938.565
 02  9 15  0  2  0.0000000  0  8  3 22 31 13 27  1  8  2            -0.000003806
 -27327883.842 9 -20657242.08248  21407034.056    21407034.4164   21407043.8664
     -1371.260       -1068.526
 -21775434.701 9 -16950013.51646  24014781.726    24014781.6644   24014793.9614
     -2344.709       -1827.046
 -35125321.283 9 -27352360.84748  19947301.870    19947302.1554   19947310.6834
      1297.949        1011.383
 -29781642.789 9 -22888421.19748  21595061.478    21595062.2194   21595070.4834
     -1376.711       -1072.767
 -28618833.721 9 -22043758.37248  21231344.135    21231344.6814   21231354.1284
      2887.613        2250.079
 -19383001.950 9 -15082272.16247  22937710.047    22937710.4164   22937722.7744
     -2686.131       -2093.085
  -7761334.223 9  -6029180.49947  22855457.179    22855457.3984   22855470.1814
      3942.990        3072.442
 -26002011.810 9 -20235509.12747  22983318.649    22983318.5624   22983329.8074
     -1202.924        -937.354
 02  9 15  0  2  4.9990000  0  8  3 22 31 13 27  1  8  2            -0.000006139
 -27321021.898 9 -20651895.11548  21408339.856    21408340.2124   21408349.6094
     -1373.684       -1070.399
 -21763711.995 9 -16940878.92347  24017012.483    24017012.4344   24017024.6984
     -2344.897       -1827.191
 -35131799.953 9 -27357409.15748  19946069.009    19946069.2934   19946077.8354
      1294.477        1008.688
 -29774752.898 9 -22883052.45748  21596372.585    21596373.3064   21596381.5554
     -1379.381       -1074.842
 -28633264.438 9 -22055003.07448  21228598.061    21228598.5924   21228608.0574
      2886.033        2248.854
 -19369570.312 9 -15071805.97247  22940266.031    22940266.3734   22940278.7764
     -2687.191       -2093.909
  -7781042.234 9  -6044537.36247  22851706.804    22851707.0104   22851719.8284
      3942.328        3071.943
 -25995996.094 9 -20230821.56247  22984463.392    22984463.3274   22984474.5714
     -1203.447        -937.741
 02  9 15  0  2  9.9990000  0  8  3 22 31 13 27  1  8  2            -0.000008474
 -27314148.822 9 -20646539.46348  21409647.780    21409648.1334   21409657.4624
     -1375.950       -1072.173
 -21751988.813 9 -16931743.96047  24019243.305    24019243.2964   24019255.5504
     -2344.818       -1827.136
 -35138264.974 9 -27362446.82048  19944838.760    19944839.0334   19944847.6054
      1291.135        1006.072
 -29767850.533 9 -22877673.99548  21597686.054    21597686.7624   21597694.9994
     -1381.958       -1076.863
 -28647692.757 9 -22066245.91048  21225852.454    21225852.9744   21225862.4514
      2884.682        2247.798
 -19356132.770 9 -15061335.18147  22942823.143    22942823.4634   22942835.9104
     -2688.217       -2094.720
  -7800753.353 9  -6059896.65047  22847955.819    22847956.0444   22847968.8854
      3941.821        3071.543
 -25989978.924 9 -20226132.85348  22985608.435    22985608.3864   22985619.6264
     -1203.810        -938.046
 02  9 15  0  2 14.9990000  0  8  3 22 31 13 27  1  8  2            -0.000010809
 -27307263.106 9 -20641173.96748  21410958.094    21410958.4594   21410967.7194
     -1378.102       -1073.834
 -21740264.574 9 -16922608.18947  24021474.298    24021474.3244   24021486.6104
     -2344.711       -1827.045
 -35144712.153 9 -27367470.59048  19943611.892    19943612.1564   19943620.7634
      1287.967        1003.612
 -29760934.132 9 -22872284.60348  21599002.189    21599002.9014   21599011.1404
     -1384.380       -1078.733
 -28662112.760 9 -22077482.26948  21223108.421    21223108.9314   21223118.4224
      2883.360        2246.774
 -19342689.121 9 -15050859.62947  22945381.399    22945381.7144   22945394.2334
     -2689.044       -2095.353
  -7820460.681 9  -6075252.99047  22844205.558    22844205.8244   22844218.6564
      3941.383        3071.210
 -25983958.575 9 -20221441.67148  22986754.081    22986754.0654   22986765.2974
     -1204.044        -938.225
 02  9 15  0  2 19.9990000  0  8  3 22 31 13 27  1  8  2            -0.000013143
 -27300365.860 9 -20635799.48548  21412270.609    21412270.9784   21412280.1884
     -1380.234       -1075.500
 -21728540.391 9 -16913472.45947  24023705.287    24023705.3834   24023717.6474
     -2344.564       -1826.934
 -35151142.556 9 -27372481.29248  19942388.240    19942388.4704   19942397.0964
      1284.780        1001.125
 -29754004.821 9 -22866885.14748  21600320.779    21600321.5014   21600329.7354
     -1386.754       -1080.596
 -28676525.597 9 -22088713.04348  21220365.764    21220366.2704   21220375.7474
      2882.123        2245.810
 -19329240.488 9 -15040380.19947  22947940.597    22947940.9014   22947953.4894
     -2689.848       -2095.985
  -7840165.300 9  -6090607.21547  22840455.843    22840456.1294   22840468.9304
      3941.050        3070.952
 -25977936.140 9 -20216748.86048  22987900.150    22987900.1274   22987911.3734
     -1204.321        -938.435
 02  9 15  0  2 24.9990000  0  8  3 22 31 13 27  1  8  2            -0.000015479
 -27293458.262 9 -20630416.93348  21413585.084    21413585.4534   21413594.6224
     -1383.096       -1077.745
 -21716817.353 9 -16904337.61747  24025936.053    24025936.2014   24025948.4524
     -2345.045       -1827.313
 -35157557.390 9 -27377479.85248  19941167.524    19941167.7524   19941176.4054
      1280.859         998.066
 -29747063.809 9 -22861476.56948  21601641.586    21601642.3404   21601650.5634
     -1389.896       -1083.041
 -28690932.449 9 -22099939.14648  21217624.241    21217624.7384   21217634.2194
      2880.114        2244.239
 -19315788.052 9 -15029897.80047  22950500.519    22950500.8134   22950513.4714
     -2691.408       -2097.196
  -7859868.447 9  -6105960.28747  22836706.411    22836706.7214   22836719.4794
      3939.980        3070.099
 -25971912.823 9 -20212055.36548  22989046.391    22989046.3664   22989057.6274
     -1205.269        -939.170
 02  9 15  0  2 29.9990000  0  8  3 22 31 13 27  1  8  2            -0.000017812
 -27286535.763 9 -20625022.78348  21414902.392    21414902.7614   21414911.9064
     -1385.381       -1079.520
 -21705091.043 9 -16895200.23147  24028167.475    24028167.6424   24028179.8684
     -2344.964       -1827.246
 -35163952.089 9 -27382462.73548  19939950.634    19939950.8664   19939959.5484
      1277.528         995.474
 -29740106.524 9 -22856055.31848  21602965.506    21602966.2654   21602974.5054
     -1392.468       -1085.043
 -28705328.748 9 -22111157.03848  21214884.717    21214885.2274   21214894.7024
      2878.716        2243.150
 -19302327.288 9 -15019408.91647  22953062.037    22953062.3294   22953075.0354
     -2692.354       -2097.955
  -7879565.542 9  -6121308.65347  22832958.143    22832958.4444   22832971.1854
      3939.480        3069.722
 -25965884.039 9 -20207357.61248  22990193.670    22990193.6594   22990204.9054
     -1205.691        -939.494
 02  9 15  0  2 34.9990000  0  8  3 22 31 13 27  1  8  2            -0.000020147
 -27279602.864 9 -20619620.52048  21416221.673    21416222.0394   21416231.1664
     -1387.562       -1081.221
 -21693365.862 9 -16886063.72247  24030398.724    24030398.8554   24030411.0654
     -2344.887       -1827.186
 -35170331.171 9 -27387433.43748  19938736.707    19938736.9624   19938745.6504
      1274.331         992.980
 -29733137.498 9 -22850624.91148  21604291.647    21604292.4344   21604300.6794
     -1394.913       -1086.945
 -28719718.928 9 -22122370.15248  21212146.366    21212146.8534   21212156.3314
      2877.385        2242.118
 -19288862.669 9 -15008917.02947  22955624.280    22955624.5494   22955637.3274
     -2693.209       -2098.599
  -7899261.082 9  -6136655.79247  22829210.149    22829210.4654   22829223.2044
      3939.064        3069.393
 -25959854.311 9 -20202659.12048  22991341.119    22991341.1104   22991352.3684
     -1205.960        -939.708
 02  9 15  0  2 39.9990000  0  8  3 22 31 13 27  1  8  2            -0.000022480
 -27272657.194 9 -20614208.31148  21417543.372    21417543.7354   21417552.8724
     -1390.744       -1083.701
 -21681639.522 9 -16876926.31147  24032630.226    24032630.3114   24032642.4844
     -2345.737       -1827.844
 -35176692.238 9 -27392390.10748  19937526.216    19937526.4764   19937535.1614
      1270.059         989.650
 -29726154.354 9 -22845183.50348  21605620.489    21605621.2664   21605629.5404
     -1398.387       -1089.659
 -28734100.621 9 -22133576.65448  21209409.621    21209410.0964   21209419.5824
      2875.048        2240.286
 -19275391.852 9 -14998420.30847  22958187.719    22958187.9464   22958200.7884
     -2695.127       -2100.087
  -7918952.640 9  -6151999.84247  22825462.913    22825463.2284   22825475.9634
      3937.624        3068.269
 -25953821.216 9 -20197958.01148  22992489.167    22992489.2144   22992500.4554
     -1207.308        -940.769
 02  9 15  0  2 44.9990000  0  8  3 22 31 13 27  1  8  2            -0.000024813
 -27265698.432 9 -20608785.91048  21418867.549    21418867.9204   21418877.0694
     -1393.328       -1085.716
 -21669911.606 9 -16867787.67947  24034862.054    24034862.0814   24034874.2484
     -2346.050       -1828.092
 -35183034.945 9 -27397332.47348  19936319.197    19936319.4934   19936328.1814
      1266.455         986.847
 -29719156.757 9 -22839730.83448  21606952.077    21606952.8424   21606961.1574
     -1401.227       -1091.869
 -28748473.517 9 -22144776.30848  21206674.537    21206675.0204   21206684.5054
      2873.333        2238.957
 -19261914.520 9 -14987918.51047  22960752.370    22960752.6024   22960765.4674
     -2696.365       -2101.061
  -7938639.892 9  -6167340.53747  22821716.502    22821716.8394   22821729.5494
      3936.792        3067.626
 -25947784.457 9 -20193254.05047  22993637.905    22993637.9814   22993649.2524
     -1207.953        -941.262
 02  9 15  0  2 49.9990000  0  8  3 22 31 13 27  1  8  2            -0.000027145
 -27258728.076 9 -20603354.46348  21420193.917    21420194.3134   21420203.4544
     -1395.761       -1087.610
 -21658183.604 9 -16858648.98347  24037093.888    24037093.8714   24037106.0594
     -2346.117       -1828.149
 -35189360.784 9 -27402261.69048  19935115.397    19935115.7164   19935124.3984
      1262.964         984.122
 -29712146.192 9 -22834268.06648  21608286.115    21608286.8864   21608295.2424
     -1403.938       -1093.982
 -28762839.050 9 -22155970.22148  21203940.860    21203941.3314   21203950.8224
      2871.769        2237.736
 -19248432.160 9 -14977412.79247  22963317.985    22963318.2094   22963331.1194
     -2697.492       -2101.939
  -7958324.341 9  -6182679.04447  22817970.643    22817970.9944   22817983.6884
      3936.133        3067.117
 -25941745.493 9 -20188548.36347  22994787.065    22994787.1384   22994798.4544
     -1208.518        -941.708
 02  9 15  0  2 54.9990000  0  8  3 22 31 13 27  1  8  2            -0.000029477
 -27251744.760 9 -20597912.92248  21421522.747    21421523.1714   21421532.3174
     -1398.015       -1089.364
 -21646454.207 9 -16849509.19546  24039325.988    24039325.9174   24039338.1134
     -2346.086       -1828.113
 -35195668.376 9 -27407176.68948  19933915.088    19933915.4064   19933924.0954
      1259.609         981.521
 -29705121.320 9 -22828794.14648  21609622.867    21609623.6604   21609632.0444
     -1406.461       -1095.941
 -28777195.839 9 -22167157.31748  21201208.855    21201209.3184   21201218.8034
      2870.303        2236.596
 -19234943.419 9 -14966902.10547  22965884.808    22965885.0324   22965897.9964
     -2698.447       -2102.691
  -7978004.558 9  -6198014.25447  22814225.594    22814225.9224   22814238.6174
      3935.617        3066.713
 -25935702.925 9 -20183839.88647  22995936.902    22995936.9614   22995948.3034
     -1208.929        -942.026
 02  9 15  0  2 59.9990000  0  8  3 22 31 13 27  1  8  2            -0.000031809
 -27244749.873 9 -20592462.35748  21422853.791    21422854.2164   21422863.3884
     -1400.043       -1090.948
 -21634724.755 9 -16840369.36146  24041558.089    24041557.9664   24041570.1394
     -2345.837       -1827.926
 -35201959.114 9 -27412078.55348  19932718.016    19932718.3084   19932727.0064
      1256.579         979.147
 -29698083.521 9 -22823310.15248  21610962.086    21610962.8804   21610971.3234
     -1408.762       -1097.739
 -28791545.291 9 -22178338.69848  21198478.244    21198478.6904   21198488.1804
      2869.153        2235.698
 -19221449.672 9 -14956387.51647  22968452.574    22968452.8164   22968465.8064
     -2699.163       -2103.241
  -7997681.893 9  -6213347.20747  22810481.088    22810481.4414   22810494.1194
      3935.292        3066.454
 -25929658.173 9 -20179129.69347  22997087.140    22997087.1914   22997098.5614
     -1209.070        -942.123
 02  9 15  0  3  4.9990000  0  8  3 22 31 13 27  1  8  2            -0.000034142
 -27237744.695 9 -20587003.77448  21424186.776    21424187.2264   21424196.4114
     -1402.475       -1092.842
 -21622996.496 9 -16831230.45346  24043789.929    24043789.8154   24043801.9244
     -2345.944       -1828.012
 -35208234.244 9 -27416968.25848  19931523.923    19931524.1874   19931532.9004
      1253.074         976.418
 -29691034.072 9 -22817817.08848  21612303.532    21612304.3344   21612312.8094
     -1411.466       -1099.845
 -28805888.577 9 -22189515.27248  21195748.802    21195749.2444   21195758.7264
      2867.534        2234.428
 -19207952.190 9 -14945870.00647  22971021.054    22971021.2954   22971034.3574
     -2700.257       -2104.091
  -8017357.617 9  -6228678.91847  22806736.898    22806737.2264   22806749.8964
      3934.626        3065.933
 -25923612.506 9 -20174418.79047  22998237.546    22998237.6024   22998248.9944
     -1209.611        -942.559
 02  9 15  0  3  9.9990000  0  8  3 22 31 13 27  1  8  2            -0.000036474
 -27230726.253 9 -20581534.86448  21425522.296    21425522.7574   21425531.9474
     -1405.088       -1094.876
 -21611266.480 9 -16822090.16746  24046022.076    24046022.0234   24046034.0284
     -2346.289       -1828.278
 -35214490.752 9 -27421843.45248  19930333.361    19930333.6084   19930342.3364
      1249.370         973.532
 -29683969.941 9 -22812312.58048  21613647.787    21613648.6024   21613657.0924
     -1414.366       -1102.098
 -28820222.705 9 -22200684.71448  21193021.092    21193021.5284   21193031.0024
      2865.718        2233.026
 -19194447.994 9 -14935347.28847  22973590.783    22973591.0634   22973604.1484
     -2701.620       -2105.150
  -8037028.731 9  -6244007.03747  22802993.581    22802993.9234   22803006.5424
      3933.726        3065.240
 -25917562.909 9 -20169704.81847  22999388.709    22999388.7764   22999400.1504
     -1210.383        -943.172
 02  9 15  0  3 14.9990000  0  8  3 22 31 13 27  1  8  2            -0.000038806
 -27223696.406 9 -20576057.06048  21426859.982    21426860.4574   21426869.6654
     -1407.293       -1096.598
 -21599536.531 9 -16812949.93646  24048254.164    24048254.1804   24048266.1454
     -2346.202       -1828.211
 -35220730.536 9 -27426705.61148  19929145.976    19929146.2174   19929154.9494
      1246.117         970.992
 -29676893.062 9 -22806798.13248  21614994.483    21614995.2904   21615003.8034
     -1416.815       -1104.021
 -28834549.589 9 -22211848.50648  21190294.757    21190295.1994   21190304.6694
      2864.362        2231.957
 -19180938.981 9 -14924820.80147  22976161.435    22976161.7374   22976174.8664
     -2702.462       -2105.807
  -8056697.104 9  -6259333.02147  22799250.784    22799251.1574   22799263.7174
      3933.226        3064.837
 -25911511.243 9 -20164989.23447  23000540.259    23000540.3574   23000551.7094
     -1210.703        -943.418
 02  9 15  0  3 19.9990000  0  8  3 22 31 13 27  1  8  2            -0.000041139
 -27216656.438 9 -20570571.37248  21428199.593    21428200.0794   21428209.3304
     -1408.979       -1097.905
 -21587807.953 9 -16803810.78646  24050485.963    24050486.0614   24050497.9824
     -2345.557       -1827.704
 -35226954.826 9 -27431555.70448  19927961.525    19927961.7594   19927970.5124
      1243.350         968.850
 -29669804.715 9 -22801274.75248  21616343.358    21616344.1614   21616352.6814
     -1418.774       -1105.533
 -28848870.445 9 -22223007.60948  21187569.576    21187570.0144   21187579.4644
      2863.473        2231.286
 -19167426.423 9 -14914291.54947  22978732.761    22978733.1004   22978746.2394
     -2702.819       -2106.090
  -8076363.985 9  -6274657.84347  22795508.280    22795508.6724   22795521.1604
      3933.295        3064.899
 -25905458.799 9 -20160273.03647  23001691.969    23001692.1294   23001703.4134
     -1210.507        -943.252
 02  9 15  0  3 24.9990000  0  8  3 22 31 13 27  1  8  2            -0.000043475
 -27209608.356 9 -20565079.35948  21429540.767    21429541.2594   21429550.5324
     -1410.944       -1099.447
 -21576082.736 9 -16794674.26546  24052717.142    24052717.2784   24052729.1904
     -2345.193       -1827.415
 -35233165.653 9 -27436395.30348  19926779.636    19926779.8714   19926788.6434
      1240.339         966.494
 -29662706.880 9 -22795743.97548  21617694.041    21617694.8274   21617703.3784
     -1420.988       -1107.269
 -28863187.288 9 -22234163.57948  21184845.167    21184845.6014   21184855.0164
      2862.351        2230.402
 -19153912.315 9 -14903761.09547  22981304.360    22981304.7654   22981317.8964
     -2703.492       -2106.607
  -8096031.316 9  -6289983.01047  22791765.678    22791766.0774   22791778.5494
      3933.040        3064.707
 -25899407.555 9 -20155557.77847  23002843.487    23002843.6804   23002854.8844
     -1210.605        -943.330
 02  9 15  0  3 29.9990000  0  8  3 22 31 13 27  1  8  2            -0.000045809
 -27202546.340 9 -20559576.49848  21430884.596    21430885.0954   21430894.3884
     -1413.757       -1101.631
 -21564355.058 9 -16785535.81546  24054948.845    24054948.9764   24054960.8284
     -2345.744       -1827.846
 -35239357.151 9 -27441219.84348  19925601.425    19925601.6554   19925610.4604
      1236.407         963.434
 -29655593.707 9 -22790201.25248  21619047.646    21619048.4324   21619057.0104
     -1424.145       -1109.723
 -28877494.234 9 -22245311.84248  21182122.643    21182123.0584   21182132.4684
      2860.339        2228.833
 -19140390.860 9 -14893224.91547  22983877.366    22983877.8114   22983890.9484
     -2705.005       -2107.773
  -8115693.287 9  -6305303.99847  22788024.088    22788024.5134   22788036.9384
      3931.997        3063.886
 -25893351.688 9 -20150838.91647  23003995.899    23003996.1104   23004007.2384
     -1211.586        -944.083
 02  9 15  0  3 34.9990000  0  8  3 22 31 13 27  1  8  2            -0.000048142
 -27195472.356 9 -20554064.30248  21432230.713    21432231.2254   21432240.5324
     -1415.550       -1103.033
 -21552626.862 9 -16776396.96646  24057180.659    24057180.7664   24057192.5894
     -2345.300       -1827.512
 -35245531.350 9 -27446030.90148  19924426.496    19924426.7264   19924435.5644
      1233.571         961.228
 -29648467.264 9 -22784648.18748  21620403.764    21620404.5364   21620413.1634
     -1426.156       -1111.288
 -28891793.322 9 -22256453.97948  21179401.602    21179402.0104   21179411.4154
      2859.380        2228.089
 -19126864.037 9 -14882684.54447  22986451.425    22986451.8944   22986465.0114
     -2705.455       -2108.157
  -8135351.941 9  -6320622.40247  22784283.138    22784283.5704   22784295.9604
      3931.906        3063.813
 -25887293.164 9 -20146117.97547  23005148.847    23005149.0594   23005160.1464
     -1211.507        -944.040
 02  9 15  0  3 39.9990000  0  8  3 22 31 13 27  1  8  2            -0.000050476
 -27188388.060 9 -20548544.07748  21433578.829    21433579.3354   21433588.6434
     -1417.656       -1104.660
 -21540899.859 9 -16767259.04246  24059412.249    24059412.3184   24059424.1144
     -2345.068       -1827.324
 -35251689.820 9 -27450829.70348  19923254.541    19923254.7904   19923263.6664
      1230.375         958.728
 -29641329.112 9 -22779086.00548  21621762.098    21621762.8674   21621771.5464
     -1428.564       -1113.156
 -28906086.071 9 -22267591.17448  21176681.767    21176682.1544   21176691.5634
      2858.026        2227.032
 -19113333.463 9 -14872141.25147  22989026.223    22989026.7014   22989039.8244
     -2706.244       -2108.752
  -8155008.806 9  -6335939.42247  22780542.534    22780542.9904   22780555.3004
      3931.475        3063.489
 -25881233.602 9 -20141396.23447  23006302.011    23006302.2034   23006313.2594
     -1211.746        -944.214
 02  9 15  0  3 44.9990000  0  8  3 22 31 13 27  1  8  2            -0.000052809
 -27181290.784 9 -20543013.73548  21434929.407    21434929.9134   21434939.2194
     -1419.884       -1106.400
 -21529171.256 8 -16758119.87046  24061644.149    24061644.1934   24061655.9864
     -2345.003       -1827.277
 -35257829.904 9 -27455614.18048  19922086.097    19922086.3584   19922095.2734
      1227.060         956.155
 -29634176.566 9 -22773512.60048  21623123.180    21623123.9414   21623132.6634
     -1431.057       -1115.105
 -28920369.846 9 -22278721.37948  21173963.630    21173964.0134   21173973.4254
      2856.645        2225.961
 -19099796.499 9 -14861592.98847  22991602.258    22991602.7244   22991615.8264
     -2707.151       -2109.459
  -8174661.235 9  -6351252.99147  22776802.813    22776803.2324   22776815.4834
      3930.971        3063.096
 -25875170.358 9 -20136671.61947  23007455.866    23007456.0364   23007467.0794
     -1212.130        -944.524
 02  9 15  0  3 49.9990000  0  8  3 22 31 13 27  1  8  2            -0.000055143
 -27174183.136 9 -20537475.30448  21436281.969    21436282.4804   21436291.7624
     -1422.572       -1108.500
 -21517443.696 8 -16748981.51646  24063875.860    24063875.8414   24063887.6604
     -2345.388       -1827.569
 -35263954.200 9 -27460386.34948  19920920.678    19920920.9304   19920929.8694
      1223.268         953.182
 -29627012.324 9 -22767930.08148  21624486.482    21624487.2374   21624496.0034
     -1434.044       -1117.441
 -28934647.240 9 -22289846.60848  21171246.709    21171247.0784   21171256.5104
      2854.713        2224.446
 -19086255.743 9 -14851041.76647  22994179.017    22994179.4544   22994192.5844
     -2708.544       -2110.552
  -8194311.833 9  -6366565.12047  22773063.443    22773063.8274   22773076.0074
      3929.949        3062.314
 -25869105.996 9 -20131946.14947  23008609.903    23008610.0444   23008621.1084
     -1212.993        -945.202
 02  9 15  0  3 54.9990000  0  8  3 22 31 13 27  1  8  2            -0.000057477
 -27167064.815 9 -20531928.56448  21437636.581    21437637.0804   21437646.3334
     -1424.746       -1110.196
 -21505716.876 8 -16739843.74046  24066107.389    24066107.3254   24066119.2364
     -2345.312       -1827.517
 -35270062.415 9 -27465145.99048  19919758.313    19919758.5534   19919767.5354
      1220.055         950.687
 -29619836.081 9 -22762338.20948  21625852.064    21625852.8224   21625861.6164
     -1436.431       -1119.301
 -28948917.955 9 -22300966.63648  21168531.055    21168531.4134   21168540.8924
      2853.376        2223.406
 -19072710.921 9 -14840487.37247  22996756.554    22996756.9564   22996770.1154
     -2709.349       -2111.192
  -8213960.268 9  -6381875.55446  22769324.485    22769324.8114   22769336.9804
      3929.497        3061.919
 -25863040.232 9 -20127219.57947  23009764.200    23009764.3384   23009775.4284
     -1213.306        -945.441
 02  9 15  0  3 59.9990000  0  8  3 22 31 13 27  1  8  2            -0.000059812
 -27159934.594 9 -20526372.54848  21438993.443    21438993.9404   21439003.1754
     -1426.691       -1111.711
 -21493989.636 8 -16730705.63746  24068338.900    24068338.8524   24068350.8104
     -2344.890       -1827.179
 -35276153.306 9 -27469892.13148  19918599.243    19918599.4694   19918608.4814
      1216.993         948.305
 -29612646.610 9 -22756736.03048  21627220.161    21627220.9284   21627229.7414
     -1438.669       -1121.040
 -28963180.740 9 -22312080.47948  21165816.894    21165817.2574   21165826.7524
      2852.227        2222.510
 -19059160.786 9 -14829928.85847  22999335.096    22999335.4744   22999348.6474
     -2709.990       -2111.670
  -8233605.278 9  -6397183.33346  22765586.157    22765586.4484   22765598.5674
      3929.231        3061.727
 -25856971.829 9 -20122490.96747  23010918.971    23010919.0834   23010930.2464
     -1213.375        -945.482
 02  9 15  0  4  4.9990000  0  8  3 22 31 13 27  1  8  2            -0.000062148
 -27152795.037 9 -20520809.25548  21440352.090    21440352.5764   21440361.7934
     -1429.433       -1113.854
 -21482264.427 8 -16721569.13046  24070569.971    24070569.9864   24070582.0124
     -2345.448       -1827.624
 -35282229.449 9 -27474626.78448  19917442.977    19917443.1864   19917452.2494
      1213.148         945.308
 -29605446.462 9 -22751125.52348  21628590.277    21628591.0764   21628599.8914
     -1441.687       -1123.395
 -28977438.070 9 -22323190.07248  21163103.765    21163104.1294   21163113.6624
      2850.218        2220.940
 -19045607.953 9 -14819368.21847  23001914.145    23001914.5134   23001927.6924
     -2711.423       -2112.796
  -8253249.442 9  -6412490.44746  22761847.986    22761848.2364   22761860.3224
      3928.157        3060.904
 -25850903.344 9 -20117762.29147  23012073.732    23012073.8294   23012085.0654
     -1214.301        -946.206
 02  9 15  0  4  9.9990000  0  8  3 22 31 13 27  1  8  2            -0.000064482
 -27145640.573 9 -20515234.35248  21441713.566    21441714.0544   21441723.2264
     -1432.046       -1115.882
 -21470535.743 8 -16712429.89946  24072801.730    24072801.8214   24072813.8324
     -2345.757       -1827.863
 -35288285.217 9 -27479345.56048  19916290.581    19916290.7884   19916299.8804
      1209.429         942.415
 -29598230.086 9 -22745502.37348  21629963.469    21629964.3104   21629973.1244
     -1444.551       -1125.627
 -28991684.434 9 -22334291.12848  21160392.709    21160393.0974   21160402.6584
      2848.420        2219.551
 -19032046.818 9 -14808801.13547  23004494.759    23004495.0914   23004508.3044
     -2712.702       -2113.781
  -8272887.143 9  -6427792.53746  22758111.058    22758111.2734   22758123.2894
      3927.298        3060.239
 -25844829.202 9 -20113029.20747  23013229.555    23013229.6404   23013240.9534
     -1215.049        -946.791
 02  9 15  0  4 14.9990000  0  8  3 22 31 13 27  1  8  2            -0.000066815
 -27138473.865 9 -20509649.90248  21443077.368    21443077.8654   21443086.9964
     -1434.422       -1117.725
 -21458806.251 8 -16703290.02546  24075033.689    24075033.8534   24075045.8584
     -2345.899       -1827.963
 -35294323.318 9 -27484050.56648  19915141.543    19915141.7434   19915150.8794
      1205.987         939.724
 -29591000.116 9 -22739868.63148  21631339.270    21631340.1374   21631348.9604
     -1447.195       -1127.693
 -29005922.479 9 -22345385.69348  21157683.221    21157683.6634   21157693.2284
      2846.813        2218.289
 -19018480.071 9 -14798229.64847  23007076.412    23007076.7304   23007089.9904
     -2713.762       -2114.627
  -8292521.026 9  -6443091.63946  22754374.853    22754375.0484   22754386.9824
      3926.579        3059.672
 -25838752.076 9 -20108293.78947  23014385.922    23014386.0144   23014397.4184
     -1215.552        -947.189
 02  9 15  0  4 19.9990000  0  8  3 22 31 13 27  1  8  2            -0.000069148
 -27131295.625 9 -20504056.46848  21444443.368    21444443.8684   21444452.9624
     -1436.430       -1119.307
 -21447076.655 8 -16694150.07746  24077265.714    24077265.8954   24077277.9104
     -2345.486       -1827.661
 -35300344.442 9 -27488742.35048  19913995.716    19913995.9454   19914005.0934
      1202.910         937.328
 -29583757.290 9 -22734224.87848  21632717.563    21632718.4224   21632727.2504
     -1449.468       -1129.461
 -29020152.873 9 -22356474.30548  21154975.202    21154975.6784   21154985.2604
      2845.571        2217.325
 -19004908.412 9 -14787654.35747  23009658.983    23009659.3314   23009672.6064
     -2714.440       -2115.146
  -8312151.784 9  -6458388.31546  22750639.240    22750639.4084   22750651.2844
      3926.246        3059.389
 -25832672.625 9 -20103556.57647  23015542.714    23015542.8324   23015554.2824
     -1215.730        -947.330
 02  9 15  0  4 24.9990000  0  8  3 22 31 13 27  1  8  2            -0.000071482
 -27124107.428 9 -20498455.27148  21445811.260    21445811.7634   21445820.8314
     -1438.681       -1121.054
 -21435348.472 8 -16685011.23445  24079497.468    24079497.7094   24079509.7034
     -2345.596       -1827.734
 -35306350.107 9 -27493422.07948  19912852.841    19912853.0864   19912862.2504
      1199.555         934.716
 -29576503.161 9 -22728572.31348  21634098.016    21634098.8664   21634107.6994
     -1451.962       -1131.397
 -29034377.130 9 -22367558.13348  21152268.360    21152268.8604   21152278.4564
      2844.111        2216.191
 -18991333.409 9 -14777076.45147  23012242.169    23012242.5724   23012255.8734
     -2715.401       -2115.894
  -8331780.893 9  -6473683.70546  22746903.948    22746904.1034   22746915.8804
      3925.647        3058.950
 -25826592.431 9 -20098818.76947  23016699.662    23016699.8274   23016711.2894
     -1216.135        -947.638
 02  9 15  0  4 29.9990000  0  8  3 22 31 13 27  1  8  2            -0.000073816
 -27116907.453 9 -20492844.90048  21447181.378    21447181.9084   21447190.9414
     -1440.974       -1122.849
 -21423619.920 8 -16675872.10745  24081729.299    24081729.5764   24081741.5214
     -2345.551       -1827.705
 -35312338.524 9 -27498088.37548  19911713.254    19911713.5184   19911722.6854
      1196.165         932.075
 -29569235.909 9 -22722909.52748  21635480.987    21635481.8104   21635490.6414
     -1454.554       -1133.416
 -29048593.458 9 -22378635.78148  21149563.042    21149563.5584   21149573.1524
      2842.581        2214.989
 -18977753.272 9 -14766494.55347  23014826.341    23014826.7624   23014840.0854
     -2716.328       -2116.616
  -8351406.611 9  -6488976.44946  22743169.305    22743169.4564   22743181.1314
      3925.035        3058.472
 -25820509.666 9 -20094078.96647  23017857.131    23017857.3564   23017868.7794
     -1216.559        -947.971
 02  9 15  0  4 34.9990000  0  8  3 22 31 13 27  1  8  2            -0.000076149
 -27109694.352 9 -20487224.30148  21448553.992    21448554.5424   21448563.5604
     -1443.606       -1124.891
 -21411889.627 8 -16666731.61445  24083961.473    24083961.7444   24083973.6574
     -2345.975       -1828.039
 -35318308.291 9 -27502740.13548  19910577.232    19910577.5184   19910586.6524
      1192.434         929.169
 -29561954.176 9 -22717235.46048  21636866.702    21636867.5124   21636876.3384
     -1457.453       -1135.672
 -29062800.433 9 -22389706.14148  21146859.513    21146860.0254   21146869.6284
      2840.662        2213.500
 -18964166.642 9 -14755907.58747  23017411.752    23017412.2094   23017425.5604
     -2717.662       -2117.670
  -8371027.587 9  -6504265.50746  22739435.573    22739435.7224   22739447.3184
      3924.070        3057.709
 -25814422.978 9 -20089336.09247  23019015.400    23019015.6504   23019027.0064
     -1217.390        -948.615
 02  9 15  0  4 39.9990000  0  8  3 22 31 13 27  1  8  2            -0.000078483
 -27102471.288 9 -20481595.93448  21449928.512    21449929.0674   21449938.0744
     -1445.880       -1126.663
 -21400160.671 8 -16657592.15846  24086193.425    24086193.6714   24086205.5564
     -2345.986       -1828.046
 -35324262.610 9 -27507379.85648  19909444.171    19909444.4374   19909453.5774
      1189.041         926.515
 -29554661.119 9 -22711552.56548  21638254.563    21638255.3574   21638264.1914
     -1460.023       -1137.689
 -29077001.243 9 -22400771.69448  21144157.159    21144157.6814   21144167.2864
      2839.132        2212.302
 -18950576.675 9 -14745318.01847  23019997.806    23019998.2944   23020011.6754
     -2718.636       -2118.428
  -8390646.937 9  -6519553.29146  22735702.180    22735702.3034   22735713.7924
      3923.450        3057.230
 -25808335.499 9 -20084592.59047  23020173.860    23020174.1134   23020185.3514
     -1217.852        -948.982
 02  9 15  0  4 44.9990000  0  8  3 22 31 13 27  1  8  2            -0.000080818
 -27095237.922 9 -20475959.54548  21451304.994    21451305.5344   21451314.5454
     -1447.948       -1128.274
 -21388432.817 8 -16648453.56146  24088425.181    24088425.3914   24088437.2634
     -2345.698       -1827.820
 -35330201.081 9 -27512007.22948  19908314.130    19908314.3964   19908323.5014
      1185.862         924.043
 -29547356.414 9 -22705860.59948  21639644.604    21639645.4184   21639654.2714
     -1462.347       -1139.499
 -29091195.532 9 -22411832.17348  21141456.047    21141456.5624   21141466.2034
      2837.863        2211.316
 -18936983.006 9 -14734725.57847  23022584.565    23022585.0844   23022598.4904
     -2719.338       -2118.976
  -8410264.236 9  -6534839.48846  22731969.180    22731969.2504   22731980.6974
      3923.059        3056.925
 -25802246.860 9 -20079848.18847  23021332.565    23021332.8094   23021343.9224
     -1218.089        -949.177
 02  9 15  0  4 49.9990000  0  8  3 22 31 13 27  1  8  2            -0.000083153
 -27087994.691 9 -20470315.46748  21452683.321    21452683.8784   21452692.9074
     -1449.520       -1129.497
 -21376706.415 8 -16639316.09746  24090656.653    24090656.8624   24090668.7024
     -2345.050       -1827.311
 -35336124.154 9 -27516622.60648  19907187.029    19907187.2714   19907196.3514
      1183.203         921.975
 -29540040.490 9 -22700159.88748  21641036.766    21641037.6054   21641046.4844
     -1464.167       -1140.906
 -29105383.676 9 -22422887.85248  21138756.109    21138756.6164   21138766.2894
      2837.067        2210.699
 -18923386.069 9 -14724130.58947  23025171.949    23025172.5014   23025185.9104
     -2719.589       -2119.153
  -8429879.930 9  -6550124.41246  22728236.481    22728236.4894   22728247.9244
      3923.192        3057.026
 -25796157.490 9 -20075103.20547  23022491.435    23022491.6244   23022502.6124
     -1217.793        -948.935
 02  9 15  0  4 54.9990000  0  8  3 22 31 13 27  1  8  2            -0.000085486
 -27080736.845 9 -20464660.00148  21454064.439    21454065.0014   21454074.0444
     -1452.759       -1132.025
 -21364976.665 8 -16630176.02246  24092888.734    24092888.9754   24092900.7894
     -2346.067       -1828.111
 -35342027.061 9 -27521222.27148  19906063.747    19906063.9844   19906073.0504
      1178.873         918.601
 -29532708.578 9 -22694446.72648  21642431.969    21642432.8264   21642441.7384
     -1467.679       -1143.641
 -29119560.897 9 -22433935.02548  21136058.253    21136058.7624   21136068.4814
      2834.518        2208.713
 -18909781.135 9 -14713529.36147  23027760.877    23027761.4474   23027774.8364
     -2721.489       -2120.641
  -8449489.241 9  -6565404.36546  22724504.943    22724504.9544   22724516.3524
      3921.555        3055.758
 -25790062.637 9 -20070353.95547  23023651.337    23023651.4824   23023662.3614
     -1219.220        -950.047
 02  9 15  0  4 59.9990000  0  8  3 22 31 13 27  1  8  2            -0.000087817
 -27073463.380 9 -20458992.36848  21455448.518    21455449.0804   21455458.1534
     -1456.073       -1134.603
 -21353242.619 8 -16621032.60346  24095121.623    24095121.8044   24095133.7214
     -2347.074       -1828.889
 -35347908.783 9 -27525805.42448  19904944.506    19904944.7364   19904953.7794
      1174.400         915.106
 -29525359.680 9 -22688720.32048  21643830.400    21643831.2984   21643840.2164
     -1471.293       -1146.465
