     2.11           OBSERVATION DATA    M (MIXED)           RINEX VERSION / TYPE
teqc  2013Mar15                         20141116 18:05:20UTCPGM / RUN BY / DATE
OSX ker:10.8.0|Core 2 Duo|gcc 4.2 -m64|OSX ker:10.8.0+|=+   COMMENT
teqc  2013Mar15                         20141116 17:57:41UTCCOMMENT
teqc  2013Mar15                         20141116 17:56:02UTCCOMMENT
teqc  2014Jan16     NOAA/NOS/NGS/CORS   20141115 01:57:31UTCCOMMENT
Solaris x86 5.10|AMD64|cc SC5.8 -xarch=amd64|=+|=+          COMMENT
0000.000      (antenna height)                              COMMENT
BIT 2 OF LLI FLAGS DATA COLLECTED UNDER A/S CONDITION       COMMENT
PAGW                                                        MARKER NAME
122                                                         MARKER NUMBER
Charles Harpster    PADT                                    OBSERVER / AGENCY
5018K67268          TRIMBLE NETR5       NP 4.47 / SP 4.17   REC # / TYPE / VERS
1441015118          TRM57971.00     NONE                    ANT # / TYPE
   837408.3550 -4828031.6770  4069551.1940                  APPROX POSITION XYZ
        0.0000        0.0000        0.0000                  ANTENNA: DELTA H/E/N
     1     1                                                WAVELENGTH FACT L1/2
     4    C1    L1    P2    L2                              # / TYPES OF OBSERV
 SNR is mapped to RINEX snr flag value [0-9]                COMMENT
  L1 & L2: min(max(int(snr_dBHz/6), 0), 9)                  COMMENT
teqc windowed: start @ 2014 Nov 14 00:00:00.000             COMMENT
teqc windowed: delta = 86400.000 sec                        COMMENT
teqc edited: all SBAS satellites excluded                   COMMENT
teqc edited: all Galileo satellites excluded                COMMENT
teqc edited: all Compass satellites excluded                COMMENT
teqc edited: all QZSS satellites excluded                   COMMENT
    16                                                      LEAP SECONDS
teqc edited: all GLONASS satellites excluded                COMMENT
Forced Modulo Decimation to 300 seconds                     COMMENT
  2014    11    14     0     0    0.0000000     GPS         TIME OF FIRST OBS
                                                            END OF HEADER
 14 11 14  0  0  0.0000000  0 10G15G14G21G18G25G12G24G04G22G31
  24944976.523   131086869.328 6  24944982.617   102145702.959 6
  21150396.063   111145973.240 8  21150401.148    86607534.56546
  23348683.664   122698273.760 7  23348689.129    95609125.09844
  20711566.320   108840133.171 8  20711570.703    84810604.85446
  24087367.297   126579910.994 6  24087377.434    98633821.374 6
  23387536.102   122902467.971 7  23387543.496    95768135.647 7
  22052503.070   115886823.705 8  22052510.875    90301564.639 8
  24200468.188   127174326.206 6  24200476.063    99096924.69544
  20397879.859   107191706.397 8  20397882.492    83526123.88447
  24042979.141   126346725.474 6  24042985.742    98452051.382 6
 14 11 14  0  5  0.0000000  0 10G15G14G21G18G25G12G24G04G22G31
  25113747.469   131973766.274 6  25113753.234   102836790.908 6
  21086928.453   110812450.973 7  21086933.719    86347647.37046
  23541426.336   123711142.271 6  23541433.125    96398372.82243
  20780773.102   109203815.926 8  20780777.469    85093993.99546
  23910150.242   125648620.919 7  23910159.855    97908141.267 7
  23282790.742   122352029.209 7  23282795.883    95339222.789 6
  22199544.180   116659533.627 7  22199552.156    90903676.222 8
  24056548.430   126418028.891 7  24056556.668    98507603.39743
  20343718.242   106907085.369 8  20343720.582    83304341.44447
  23827454.375   125214135.054 7  23827461.129    97569514.611 6
 14 11 14  0 10  0.0000000  0 10G15G14G21G18G25G12G24G04G22G31
  25282099.836   132858463.572 6  25282106.387   103526164.841 6
  21028092.078   110503263.980 8  21028096.977    86106722.69346
  23736593.938   124736750.177 6  23736599.000    97197547.37843
  20857550.445   109607284.738 8  20857555.410    85408385.23046
  23735320.469   124729891.095 6  23735329.633    97192248.643 7
  23186522.375   121846138.619 7  23186528.531    94945022.856 7
  22353303.961   117467544.964 7  22353311.703    91533295.412 7
  23920865.602   125705013.804 6  23920873.359    97952008.02743
  20296896.727   106661037.488 8  20296899.059    83112616.00847
  23614880.469   124097050.318 7  23614885.355    96699059.527 6
 14 11 14  0 15  0.0000000  0  9G14G21G18G25G12G24G04G22G31
  20973831.539   110218123.950 8  20973836.363    85884535.86646
  23933647.969   125772274.801 6  23933653.598    98004449.12943
  20941910.117   110050595.119 8  20941914.652    85753821.83046
  23563507.180   123827008.693 6  23563516.531    96488704.403 7
  23099230.422   121387421.759 7  23099235.750    94587581.600 7
  22513291.414   118308282.693 7  22513299.250    92188415.656 7
  23793849.227   125037538.373 6  23793856.027    97431898.17244
  20257696.703   106455040.158 8  20257698.742    82952098.72147
  23405694.492   122997777.069 7  23405700.082    95842483.667 7
 14 11 14  0 20  0.0000000  0 10G14G21G18G25G12G24G04G11G22G31
  20924091.703   109956739.577 8  20924096.461    85680860.00846
  24132054.313   126814909.755 6  24132061.480    98816891.52143
  21033836.633   110533672.948 8  21033840.512    86130246.00346
  23395338.477   122943278.259 7  23395347.285    95800083.889 7
  23021383.398   120978331.695 7  23021389.191    94268810.562 7
  22679014.461   119179163.234 7  22679022.414    92867023.809 7
  23675902.102   124417726.349 6  23675908.766    96948928.59644
  24650190.422   129537586.670 5
  20226385.430   106290497.751 8  20226387.695    82823883.93847
  23200329.602   121918583.362 7  23200335.242    95001554.635 6
 14 11 14  0 25  0.0000000  0 10G14G21G18G25G12G24G04G11G22G31
  20878817.188   109718820.478 8  20878821.500    85495468.71646
  24331284.938   127861868.589 6  24331290.789    99632703.14242
  21133291.703   111056312.200 8  21133296.305    86537497.23246
  23231442.609   122082004.130 7  23231452.863    95128961.784 7
  22953409.727   120621128.203 7  22953415.613    93990470.649 7
  22849982.641   120077605.434 7  22849990.387    93567108.599 7
  23567400.156   123847546.128 7  23567406.148    96504633.04744
  24586611.742   129203481.962 5  24586617.941   100678084.98442
  20203212.977   106168724.797 8  20203215.000    82728996.01347
  22999207.914   120861685.784 7  22999213.367    94177998.845 7
 14 11 14  0 30  0.0000000  0 10G14G21G18G25G12G24G04G11G22G31
  20837955.203   109504091.014 8  20837959.664    85328147.19846
  24530816.102   128910406.178 6  24530821.238   100449745.02843
  21240211.906   111618180.821 8  21240216.641    86975316.81446
  23072448.945   121246487.685 7  23072458.527    94477910.656 7
  22895701.469   120317870.497 7  22895706.715    93754166.328 7
  23025708.273   121001054.075 7  23025716.445    94286678.977 7
  23468686.367   123328806.439 7  23468693.453    96100420.92544
  24533108.031   128922324.002 6  24533114.402   100459001.46343
  20188411.609   106090944.166 8  20188413.465    82668387.78647
  22802743.023   119829255.581 7  22802747.809    93373508.435 7
 14 11 14  0 35  0.0000000  0 11G14G32G21G18G25G12G24G04G11G22G31
  20801456.188   109312287.497 8  20801460.172    85178690.11146
  24725144.016   129931481.346 6  24725151.973   101245358.30243
  24730131.258   129957818.943 6  24730137.855   101265910.72543
  21354508.766   112218814.190 8  21354512.516    87443342.63146
  22918979.352   120440001.226 7  22918988.617    93849480.376 7
  22848607.227   120070390.939 7  22848612.641    93561325.509 7
  23205713.297   121946985.117 7  23205721.535    95023768.058 7
  23380070.617   122863131.003 7  23380078.098    95737557.54044
  24489782.820   128694647.300 6  24489789.016   100281591.57443
  20182192.539   106058265.476 8  20182195.348    82642923.96247
  22611333.508   118823397.353 7  22611338.719    92589723.428 7
 14 11 14  0 40  0.0000000  0 10G14G32G18G25G12G24G04G11G22G31
  20769272.789   109143163.278 8  20769277.469    85046905.22446
  24541398.148   128965892.822 7  24541405.578   100492952.84644
  21476068.375   112857611.666 7  21476072.277    87941106.72546
  22771647.602   119665771.757 7  22771656.535    93246185.317 7
  22812430.273   119880282.762 7  22812435.969    93413189.671 7
  23389523.820   122912913.938 6  23389530.852    95776439.830 7
  23301824.063   122451942.373 7  23301830.168    95417151.34244
  24456691.563   128520756.940 6  24456697.891   100146093.00343
  20184744.805   106071675.168 8  20184746.645    82653373.15047
  22425367.359   117846142.049 7  22425373.219    91828226.339 7
 14 11 14  0 45  0.0000000  0 11G14G01G32G18G25G12G24G04G11G22G31
  20741361.891   108996490.820 8  20741366.465    84932615.18146
  24902713.836   130864591.233 5                 101972487.432 6
  24358597.352   128005274.091 6  24358603.969    99744420.23743
  21604750.813   113533843.917 8  21604755.770    88468040.78646
  22631057.523   118926966.521 7  22631066.141    92670493.490 7
  22787426.109   119748885.059 7  22787431.754    93310802.210 7
  23576677.047   123896409.032 7  23576683.773    96542799.608 7
  23234175.969   122096450.856 7  23234182.301    95140145.40744
  24433849.438   128400722.448 6  24433855.492   100052560.02543
  20196228.688   106132026.327 8  20196230.844    82700400.11947
  22245215.484   116899437.456 8  22245221.184    91090534.832 7
 14 11 14  0 50  0.0000000  0 11G14G01G32G18G25G12G24G04G11G22G31
  20717686.289   108872075.649 8  20717690.691    84835668.41646
  24770210.773   130168283.974 6  24770219.066   101429911.163 6
  24177050.055   127051239.466 7  24177056.020    99001017.93444
  21740394.023   114246657.147 8  21740399.523    89023479.44145
  22497796.305   118226678.559 7  22497804.098    92124815.138 7
  22773800.914   119677282.488 7  22773805.324    93255008.274 7
  23766721.766   124895106.725 6  23766731.016    97321005.514 7
  23177315.086   121797647.211 7  23177321.012    94907311.66544
  24421226.461   128334384.679 6  24421231.621   100000868.55243
  20216782.375   106240035.681 8  20216784.426    82784563.30047
  22071231.766   115985147.440 8  22071237.059    90378101.514 7
 14 11 14  0 55  0.0000000  0 11G14G01G32G18G25G12G24G04G11G22G31
  20698214.594   108769751.520 8  20698219.105    84755935.45646
  24645815.078   129514587.677 6  24645825.141   100920538.309 6
  23997076.188   126105478.045 7  23997082.977    98264061.95944
  21882813.344   114995070.710 7  21882817.766    89606658.61245
  22372434.383   117567900.544 7  22372442.676    91611482.215 7
  22771707.164   119666285.117 7  22771712.836    93246439.136 7
  23959224.313   125906708.638 6  23959233.551    98109266.762 7
  23131385.391   121556286.039 7  23131391.902    94719238.24044
  24418744.992   128321348.397 6  24418751.176    99990710.76943
  20246512.039   106396265.101 8  20246513.961    82906300.57647
  21903751.648   115105034.366 8  21903756.125    89692299.636 7
 14 11 14  1  0  0.0000000  0 11G14G01G32G18G25G12G24G04G11G22G31
  20682920.234   108689381.094 8  20682924.613    84693309.28146
  24529914.609   128905530.020 6  24529923.961   100445948.604 6
  23819013.430   125169751.381 7  23819018.953    97534924.85944
  22031796.102   115777981.839 7  22031801.020    90216718.96645
  22255519.148   116953505.809 7  22255527.230    91132733.518 7
  22781248.391   119716425.767 7  22781253.688    93285510.052 7
  24153758.242   126928991.707 7  24153765.723    98905850.966 7
  23096482.867   121372877.981 7  23096489.586    94576323.17444
  24426287.633   128360986.138 6  24426293.734   100021597.60843
  20285494.195   106601118.384 8  20285496.000    83065926.55547
  21743089.172   114260751.142 8  21743094.578    89034417.069 7
 14 11 14  1  5  0.0000000  0 11G14G01G32G18G25G12G24G04G11G22G31
  20671785.250   108630866.001 7  20671789.348    84647713.23946
  24422868.836   128343003.109 6  24422877.781   100007616.612 6
  23643208.656   124245896.764 7  23643214.160    96815038.70844
  22187112.695   116594173.997 7  22187117.301    90852712.54245
  22147570.250   116386234.116 7  22147577.777    90690704.083 7
  22802473.773   119827963.650 7  22802478.398    93372422.862 7
  24349917.555   127959816.425 6  24349925.340    99709090.955 7
  23072660.977   121247687.061 7  23072667.297    94478772.05345
  24443692.305   128452445.591 6  24443697.680   100092864.99543
  20333775.141   106854837.021 8  20333777.352    83263629.40447
  21589538.516   113453837.765 8  21589543.164    88405653.687 7
 14 11 14  1 10  0.0000000  0 11G14G01G32G18G25G12G24G04G11G22G31
  20664796.188   108594137.468 7  20664799.957    84619093.71046
  24325007.383   127828734.905 6  24325014.781    99606888.786 6
  23470024.852   123335810.040 6  23470030.438    96105881.00545
  22348508.648   117442313.372 7  22348511.938    91513600.07944
  22049079.109   115868660.538 7  22049086.480    90287400.340 7
  22835376.438   120000869.337 7  22835380.371    93507154.720 7
  24547310.586   128997123.593 6  24547318.785   100517382.104 7
  23059917.039   121180716.208 7  23059923.242    94426587.18345
  24470751.844   128594647.464 6  24470757.613   100203671.97843
  20391367.234   107157485.480 8  20391369.160    83499459.31847
  21443366.828   112685704.442 8  21443372.230    87807108.655 7
 14 11 14  1 15  0.0000000  0 11G14G01G32G18G25G12G24G04G11G22G31
  20661947.352   108579168.088 7  20661951.418    84607429.41246
  24236624.242   127364285.788 6  24236633.301    99244980.818 6
  23299832.555   122441451.147 7  23299838.547    95408978.53244
  22515710.102   118320963.815 7  22515715.520    92198262.39944
  21960501.914   115403186.107 7  21960509.391    89924693.305 7
  22879899.656   120234842.038 7  22879904.441    93689471.231 7
  24745563.656   130038947.053 7  24745571.434   101329192.509 7
  23058204.492   121171718.788 7  23058209.977    94419576.28645
  24507222.023   128786303.754 6  24507227.805   100353014.88542
  20458250.492   107508959.787 8  20458252.754    83773335.34447
  21304819.125   111957633.847 8  21304824.254    87239781.338 7
 14 11 14  1 20  0.0000000  0 11G14G01G32G18G25G12G24G04G11G22G31
  20663240.875   108585968.170 8  20663245.109    84612728.33046
  24157984.477   126951031.534 6  24157992.910    98922964.956 6
  23133018.727   121564837.289 7  23133024.383    94725903.36544
  22688426.055   119228589.041 7  22688431.512    92905502.50944
  21882258.469   114992015.646 7  21882266.426    89604301.085 7
  22935934.508   120529307.200 7  22935939.070    93918924.751 7
  24944316.297   131083410.134 6  24944325.215   102143059.762 6
  23067428.539   121220191.226 7  23067434.137    94457347.08445
  24552820.156   129025922.349 6  24552825.781   100539730.91743
  20534371.750   107908979.309 8  20534374.047    84085038.79847
  21174113.727   111270770.179 8  21174117.938    86704563.344 8
 14 11 14  1 25  0.0000000  0 11G14G01G32G18G25G12G24G04G11G22G31
  20668687.570   108614588.697 7  20668691.625    84635030.09546
  24089310.414   126590152.028 6  24089319.359    98641760.534 7
  22969974.922   120708036.723 7  22969980.449    94058267.02345
  22866346.859   120163565.257 7  22866351.832    93634054.92544
  21814727.953   114637141.603 7  21814735.508    89327776.167 8
  23003321.602   120883429.979 7  23003326.371    94194864.673 7
  25143236.469   132128735.505 5  25143244.055   102957599.169 6
  23087445.828   121325382.788 7  23087451.387    94539314.57645
  24607224.711   129311823.020 6  24607230.914   100762510.73043
  20619644.523   108357090.957 8  20619646.762    84434216.64647
  21051439.641   110626117.545 8  21051444.035    86202237.093 8
 14 11 14  1 30  0.0000000  0 10G14G01G32G18G25G12G04G11G22G31
  20678301.664   108665112.040 7  20678305.969    84674398.97946
  24030787.727   126282611.556 6  24030795.527    98402118.901 6
  22811100.703   119873152.732 7  22811106.523    93407708.49945
  23049143.664   121124171.868 7  23049149.723    94382579.08244
  21758244.813   114340318.530 7  21758251.680    89096485.708 8
  23081852.766   121296113.569 7  23081857.422    94516436.344 7
  23118064.719   121486289.169 7  23118070.840    94664696.29145
  24670081.484   129642139.272 6  24670088.375   101019900.09143
  20713947.961   108852658.357 8  20713950.355    84820372.97847
  20936960.258   110024524.667 8  20936964.668    85733463.868 8
 14 11 14  1 35  0.0000000  0 10G14G01G32G18G25G12G04G11G22G31
  20692107.516   108737661.750 7  20692111.824    84730931.24546
  23982557.273   126029159.548 6  23982566.121    98204624.066 7
  22656806.000   119062326.517 7  22656811.227    92775896.20445
  23236479.008   122108617.691 7  23236483.758    95149679.28844
  21713095.266   114103059.536 7  21713102.391    88911608.782 7
  23171272.797   121766023.976 7  23171278.637    94882600.352 7
  23159050.516   121701671.409 7  23159056.727    94832526.60045
  24741005.328   130014843.757 6  24741011.109   101310319.23043
  20817129.453   109394879.442 8  20817131.758    85242882.81946
  20830808.164   109466693.278 8  20830812.324    85298790.297 8
 14 11 14  1 40  0.0000000  0 10G14G01G32G18G25G12G04G11G22G31
  20710134.469   108832395.133 8  20710138.656    84804749.49147
  23944717.789   125830316.076 6  23944727.078    98049681.245 6
  22507500.641   118277721.522 7  22507505.652    92164515.90945
  23427994.266   123115037.137 6  23427999.352    95933901.72443
  21679519.297   113926616.565 7  21679526.359    88774120.951 8
  23271287.422   122291598.631 7  23271291.391    95292138.979 6
  23210122.523   121970060.228 7  23210129.223    95041660.85044
  24819579.305   130427755.039 6  24819585.066   101632068.29943
  20929003.234   109982779.520 8  20929005.180    85700986.61446
  20733087.430   108953168.422 8  20733092.098    84898641.297 8
 14 11 14  1 45  0.0000000  0 10G14G01G32G18G25G12G04G11G22G31
  20732419.180   108949502.714 7  20732423.387    84896002.19346
  23917326.133   125686368.169 6  23917334.230    97937514.106 6
  22363599.156   117521515.337 7  22363604.188    91575264.57345
  23623323.867   124141501.043 6  23623330.656    96733743.16243
  21657702.906   113811972.830 8  21657710.008    88684788.336 8
  23381555.992   122871063.973 7  23381559.586    95743670.364 7
  23270962.914   122289769.362 7  23270967.531    95290784.79944
  24905364.820   130878557.759 6  24905370.750   101983343.09043
  21049353.430   110615223.076 8  21049355.477    86193799.61146
  20643872.195   108484341.155 8  20643876.469    84533321.634 8
 14 11 14  1 50  0.0000000  0 10G14G01G32G18G25G12G04G11G22G31
  20759005.273   109089210.884 8  20759009.074    85004865.72346
  23900390.773   125597370.681 7  23900398.160    97868165.347 6
  22225517.727   116795894.085 7  22225523.008    91009845.63146
  23822092.203   125186031.957 6  23822098.750    97547662.78843
  21647782.484   113759839.539 8  21647789.605    88644165.127 7
  23501706.375   123502458.504 7  23501710.813    96235665.934 7
  23341207.500   122658913.878 7  23341213.262    95578429.89344
  24997896.742   131364819.618 5  24997903.027   102362248.22542
  21177934.273   111290921.809 8  21177936.832    86720317.90646
  20563208.016   108060450.476 8  20563212.445    84203017.441 8
 14 11 14  1 55  0.0000000  0 10G14G01G32G18G25G12G04G11G22G31
  20789939.320   109251770.596 8  20789943.297    85131535.63146
  23893875.563   125563133.212 7  23893883.188    97841486.815 6
  22093669.922   116103028.890 8  22093674.887    90469950.85846
  24023911.672   126246596.723 6  24023918.195    98374076.35943
  21649837.227   113770640.235 8  21649844.582    88652581.365 7
  23631331.586   124183638.638 7  23631336.246    96766455.416 6
  23420464.922   123075414.667 7  23420471.156    95902975.82744
  25096694.211   131883998.276 6  25096698.883   102766803.14643
  21314472.742   112008434.139 8  21314474.707    87279418.17646
  20491111.281   107681576.915 8  20491115.547    83907791.456 8
 14 11 14  2  0  0.0000000  0 10G14G01G32G18G25G12G04G11G22G31
  20825274.609   109437459.740 7  20825278.699    85276228.45346
  23897700.141   125583229.733 7  23897707.570    97857146.382 6
  21968464.734   115445073.951 7  21968469.824    89957258.83546
  24228389.039   127321126.892 6  24228394.977    99211371.92643
  21663896.133   113844518.415 8  21663903.305    88710148.870 8
  23769993.125   124912310.634 7  23769997.516    97334251.599 6
  23508307.016   123537022.764 7  23508312.375    96262670.32944
  25201254.211   132433466.737 5  25201259.410   103194960.29142
  21458667.422   112766181.303 8  21458670.043    87869870.25846
  20427567.805   107347654.223 8  20427572.016    83647592.146 8
 14 11 14  2  5  0.0000000  0 10G14G01G32G18G25G12G04G11G22G31
  20865067.469   109646573.665 8  20865071.770    85439174.34246
  23911736.438   125656992.080 7  23911744.723    97914623.550 6
  21850305.766   114824143.093 8  21850310.414    89473416.69646
  24435121.922   128407517.819 6  24435128.246   100057909.66943
  21689930.172   113981329.374 7  21689937.109    88816754.882 7
  23917228.328   125686037.417 6  23917231.480    97937155.446 5
  23604272.672   124041327.038 7  23604278.523    96655634.61244
  25311063.609   133010520.284 6  25311068.945   103644612.43643
  21610192.156   113562448.809 8  21610195.035    88490338.12746
  20372535.891   107058462.248 8  20372539.867    83422247.872 8
 14 11 14  2 10  0.0000000  0  9G14G01G32G18G25G12G04G22G31
  20909379.055   109879430.869 7  20909383.180    85620621.50046
  23935814.461   125783524.996 6  23935822.211    98013220.660 6
  21739585.664   114242306.957 8  21739591.102    89020038.00546
  24643709.039   129503646.783 6  24643716.078   100912035.52042
  21727860.516   114180655.024 7  21727867.570    88972073.601 8
  24072552.508   126502273.040 6  24072557.414    98573183.041 6
  23707878.992   124585783.078 6  23707885.656    97079885.83844
  21768699.938   114395407.413 7  21768701.906    89139396.44246
  20325948.922   106813645.014 8  20325952.281    83231481.281 8
 14 11 14  2 15  0.0000000  0  8G14G01G32G25G12G04G22G31
  20958270.781   110136360.382 7  20958274.801    85820826.29446
  23969721.094   125961705.084 7  23969729.059    98152062.294 6
  21636687.164   113701571.546 8  21636691.906    88598685.82946
  21777555.711   114441803.678 7  21777562.430    89175566.098 7
  24235462.836   127358372.897 6  24235468.984    99240273.694 6
  23818617.820   125167723.526 6  23818625.109    97533345.78444
  21933818.344   115263114.271 7  21933822.063    89815531.33546
  20287712.563   106612710.707 8  20287715.660    83074909.198 8
 14 11 14  2 20  0.0000000  0  9G14G01G32G25G20G12G04G22G31
  21011807.422   110417696.464 8  21011811.844    86040049.16346
  24013199.352   126190188.084 7  24013208.305    98330101.104 7
  21541975.789   113203861.154 8  21541980.938    88210859.64846
  21838832.844   114763817.719 7  21838840.078    89426486.129 7
  24617664.625   129366751.157 5
  24405440.781   128251609.751 6  24405445.500    99936302.180 6
  23935964.172   125784372.171 6  23935968.355    98013851.04144
  22105161.797   116163525.755 7  22105163.816    90517150.26145
  20257707.688   106455035.433 8  20257711.578    82952045.428 8
 14 11 14  2 25  0.0000000  0  9G14G01G32G25G20G12G04G22G31
  21070053.375   110723779.906 8  21070057.469    86278555.68246
  24065955.711   126467423.641 6  24065964.719    98546128.819 7
  21455801.133   112751008.938 8  21455806.023    87857987.90646
  21911463.398   115145491.774 8  21911470.063    89723894.504 7
  24426716.781   128363322.609 6  24426721.660   100023352.42043
  24581956.383   129179201.820 6  24581960.191   100659101.190 6
  24059368.141   126432868.515 6  24059374.918    98519172.69344
  22282322.039   117094509.487 7  22282325.176    91242591.70445
  20235793.164   106339876.717 8  20235797.086    82862311.442 8
 14 11 14  2 30  0.0000000  0  9G14G01G32G25G20G12G04G22G31
  21133071.398   111054942.656 8  21133075.359    86536604.51546
  24127656.125   126791659.436 6  24127665.051    98798780.035 6
  21378489.383   112344733.870 8  21378494.203    87541410.04246
  21995170.227   115585378.564 7  21995177.586    90066663.411 7
  24239978.570   127382004.651 6  24239982.531    99258689.30443
  24764469.250   130138319.600 6  24764474.242   101406465.892 6
  24188275.539   127110276.814 7  24188280.230    99047023.18743
  22464879.469   118053851.248 7  22464881.230    91990130.29145
  20221807.203   106266378.884 8  20221810.953    82805040.458 8
 14 11 14  2 35  0.0000000  0  9G14G01G32G25G20G12G04G22G31
  21200924.711   111411514.681 8  21200929.012    86814452.75146
  24197933.023   127160963.910 6  24197940.965    99086549.619 6
  21310345.516   111986635.830 8  21310350.121    87262372.69346
  22089639.602   116081815.458 8  22089646.277    90453497.324 7
  24057941.531   126425391.613 6  24057944.980    98513276.95743
  24952441.000   131126112.911 6  24952445.145   102176174.949 6
  24322114.383   127813611.997 6  24322121.559    99595076.40343
  22652399.422   119039273.334 7  22652401.301    92757991.17545
  20215567.750   106233589.196 8  20215571.355    82779490.105 8
 14 11 14  2 40  0.0000000  0  8G14G01G32G25G20G04G22G31
  21273673.422   111793810.385 8  21273677.508    87112345.39446
  24276385.195   127573233.616 7  24276393.605    99407798.643 7
  21251646.531   111678173.987 8  21251652.004    87022012.87346
  22194513.656   116632935.708 7  22194521.641    90882941.627 7
  23881099.883   125496087.946 6  23881104.348    97789144.55243
  24460314.203   128539849.143 7  24460319.336   100160975.27243
  22844437.680   120048439.970 7  22844440.629    93544354.24845
  20216875.688   106240462.993 8  20216879.543    82784846.337 8
 14 11 14  2 45  0.0000000  0  8G14G01G32G25G20G04G22G31
  21351373.398   112202126.008 8  21351377.879    87430513.26946
  24362583.133   128026210.808 6  24362592.027    99760767.718 6
  21202642.898   111420656.380 8  21202648.418    86821349.80947
  22309404.977   117236690.769 7  22309412.184    91353400.085 7
  23709952.156   124596699.800 7  23709956.625    97088322.87643
  24602291.078   129285939.843 6  24602296.023   100742344.42543
  23040541.539   121078968.726 7  23040546.020    94347363.12245
  20225517.617   106285877.911 8  20225521.598    82820234.584 8
 14 11 14  2 50  0.0000000  0 10G14G01G32G25G20G16G29G04G22G31
  21434075.734   112636728.159 7  21434079.824    87769164.18146
  24456071.813   128517492.945 6  24456080.340   100143584.808 6
  21163549.758   111215220.682 8  21163554.563    86661270.05546
  22433889.719   117890863.781 7  22433897.262    91863145.275 7
  23544989.023   123729813.704 7  23544993.102    96412827.45244
  24918828.023   130949331.959 6  24918833.289   102038453.10343
  24989645.078   131321472.50614                 102328468.62115
  24747462.547   130048821.901 6  24747468.570   101336797.94643
  23240248.570   122128437.818 7  23240252.328    95165130.69544
  20241267.023   106368640.706 8  20241270.707    82884725.103 8
 14 11 14  2 55  0.0000000  0 10G14G01G32G25G20G16G29G04G22G31
  21521825.141   113097856.155 8  21521829.398    88128484.54146
  24556368.078   129044554.626 6  24556377.156   100554282.076 6
  21134550.805   111062828.945 8  21134555.516    86542523.23546
  22567520.727   118593096.749 7  22567527.707    92410339.769 7
  23386697.680   122897989.411 7  23386701.531    95764652.90144
  24687647.547   129734477.767 6  24687653.141   101091814.24943
  24861867.391   130649983.415 6  24861874.109   101805215.535 5
  24895246.461   130825438.727 7  24895252.895   101941954.06043
  23443096.430   123194399.821 7  23443097.316    95995749.90644
  20263885.414   106487500.986 8  20263889.148    82977343.549 8
 14 11 14  3  0  0.0000000  0 10G14G01G32G25G20G16G29G04G22G31
  21614661.508   113585710.623 7  21614665.602    88508630.68746
  24662973.078   129604762.050 6  24662981.516   100990807.001 7
  21115792.641   110964253.328 8  21115797.313    86465711.04947
  22709823.914   119340908.779 7  22709831.668    92993050.407 7
  23235557.102   122103740.634 7  23235561.391    95145757.95644
  24456778.289   128521254.610 6  24456784.309   100146445.90743
  24738149.234   129999843.222 6  24738156.660   101298613.511 6
  25045066.609   131612748.628 5  25045074.109   102555442.36543
  23648611.188   124274388.961 7  23648613.328    96837299.43544
  20293126.883   106641165.454 8  20293130.598    83097082.154 8
 14 11 14  3  5  0.0000000  0 10G14G01G32G25G20G16G29G04G22G31
  21712613.633   114100452.754 7  21712617.922    88909728.24946
  24775365.320   130195388.426 6  24775373.563   101451035.182 6
  21107384.523   110920069.101 8  21107389.371    86431281.73846
  22860310.328   120131717.281 7  22860317.898    93609264.697 7
  23092033.781   121349520.703 7  23092037.563    94558054.34244
  24226736.555   127312383.182 5  24226743.152    99204468.41943
  24619060.609   129374028.058 6  24619067.348   100810966.087 6
  25196348.133   132407737.345 5
  23856324.984   125365931.350 7  23856328.844    97687851.50344
  20328737.977   106828305.685 8  20328742.117    83242905.762 8
 14 11 14  3 10  0.0000000  0 10G14G01G32G25G20G16G29G04G22G31
  21815703.914   114642195.823 7  21815708.074    89331865.47945
  24893013.500   130813630.301 6  24893021.047   101932781.971 6
  21109396.891   110930645.374 8  21109402.133    86439522.93046
  23018470.930   120962857.258 7  23018478.805    94256906.091 7
  22956579.688   120637704.696 7  22956583.359    94003392.64844
  23998050.227   126110620.792 7  23998054.824    98268030.55843
  24505156.469   128775464.706 6  24505162.730   100344553.728 6
  25348522.938   133207425.610 5
  24065765.672   126466550.440 6  24065770.039    98545476.26444
  20370462.961   107047569.451 8  20370466.422    83413760.673 8
 14 11 14  3 15  0.0000000  0  9G14G01G32G25G20G16G29G22G31
  21923943.750   115210997.584 7  21923947.758    89775087.38145
  25015369.211   131456619.695 6  25015378.168   102433812.760 6
  21121859.938   110996137.737 8  21121865.008    86490555.89346
  23183787.625   121831598.782 7  23183794.715    94933847.323 7
  22829627.219   119970569.233 7  22829631.195    93483546.97844
  23771242.570   124918748.017 6  23771248.289    97339299.06144
  24396985.813   128207018.979 6  24396990.539    99901609.470 6
  24276466.438   127573776.681 7  24276468.148    99408249.29143
  20418040.000   107297590.241 8  20418044.004    83608582.065 8
 14 11 14  3 20  0.0000000  0  9G14G01G32G25G20G16G29G22G31
  22037333.125   115806866.064 7  22037337.727    90239400.20145
  25141881.094   132121447.429 6  25141890.434   102951860.466 6
  21144762.523   111116491.928 8  21144767.074    86584338.32246
  23355732.125   122735172.802 6  23355739.227    95637930.780 7
  22711590.469   119350281.349 7  22711594.922    93000205.93545
  23546852.445   123739567.735 6  23546858.676    96420457.74544
  24295075.422   127671484.289 6  24295081.781    99484310.152 6
  24487953.953   128685159.404 7  24487957.258   100274261.33743
  20471210.625   107577003.415 8  20471214.215    83826306.608 8
 14 11 14  3 25  0.0000000  0  9G14G01G32G25G20G16G29G22G31
  22155862.961   116429742.472 7  22155868.289    90724758.14145
  25271989.125   132805167.762 6  25271997.965   103484629.920 6
  21178053.055   111291433.697 8  21178057.691    86720656.49546
  23533772.273   123670780.348 6  23533778.875    96366975.421 6
  22602855.375   118778875.299 7  22602859.281    92554954.57945
  23325412.469   122575889.772 7  23325416.977    95513696.07544
  24199942.891   127171559.600 7  24199948.656    99094758.942 6
  24699771.086   129798265.870 6  24699775.988   101141616.76043
  20529715.406   107884448.239 8  20529719.207    84065873.970 8
 14 11 14  3 30  0.0000000  0  9G14G32G25G20G16G29G23G22G31
  22279510.781   117079512.754 7  22279515.738    91231072.30245
  21221638.969   111520479.245 8  21221644.098    86899133.42146
  23717375.516   124635619.324 7  23717383.063    97118797.727 7
  22503782.445   118258242.664 7  22503786.219    92149266.90045
  23107456.703   121430530.618 7  23107462.484    94621208.72744
  24112079.055   126709839.050 6  24112086.926    98734977.226 6
  25085397.258   131824613.079 6  25085401.277   102720524.59543
  24911460.695   130910701.480 6  24911465.164   102008449.94743
  20593299.672   108218585.318 8  20593303.773    84326240.512 8
 14 11 14  3 35  0.0000000  0  8G14G32G25G20G16G29G23G31
  22408238.648   117755981.052 7  22408243.211    91758190.09645
  21275385.828   111802919.761 8  21275390.871    87119216.84246
  23906006.867   125626881.769 6  23906013.570    97891209.738 6
  22414697.430   117790097.829 7  22414700.996    91784478.83245
  22893520.180   120306285.094 7  22893525.152    93745173.61644
  24031955.641   126288782.831 7  24031960.695    98406881.992 6
  24901371.992   130857551.160 6  24901375.121   101966970.26543
  20661711.133   108578089.058 8  20661714.781    84606373.278 8
 14 11 14  3 40  0.0000000  0  8G14G32G25G20G16G29G23G31
  22541996.289   118458880.142 7  22542001.734    92305903.30245
  21339118.313   112137836.323 8  21339123.445    87380190.69146
  24099134.672   126641779.055 6  24099141.457    98682038.651 6
  22335891.938   117375972.108 7  22335895.387    91461783.46645
  22684128.789   119205927.117 7  22684133.750    92887752.11945
  23960010.000   125910707.602 6  23960015.910    98112278.295 6
  24716610.148   129886624.975 7  24716614.438   101210404.60744
  20734702.945   108961664.363 8  20734706.855    84905263.111 8
 14 11 14  3 45  0.0000000  0  8G14G32G25G20G16G29G23G31
  22680720.539   119187878.475 7  22680724.922    92873953.50645
  21412624.867   112524115.071 8  21412629.930    87681186.95246
  24296238.172   127677563.496 6  24296245.023    99489143.245 6
  22267621.875   117017210.442 7  22267626.527    91182228.93345
  22479806.211   118132206.427 7  22479810.520    92051086.96945
  23896654.711   125577780.984 6  23896661.090    97852855.340 6
  24531334.461   128912993.763 7  24531338.078   100451731.10843
  20812037.609   109368061.818 8  20812041.516    85221936.401 8
 14 11 14  3 50  0.0000000  0  8G14G32G25G20G16G29G23G31
  22824332.758   119942564.031 7  22824338.258    93462019.62944
  21495655.570   112960442.893 8  21495660.594    88021182.45046
  24496801.695   128731527.114 6  24496808.359   100310413.315 6
  22210101.625   116714940.236 7  22210105.734    90946693.73045
  22281066.063   117087822.562 7  22281070.633    91237281.69245
  23842272.102   125291995.309 7  23842277.414    97630165.496 6
  24345781.063   127937905.459 7  24345784.926    99691922.11244
  20893486.109   109796073.044 8  20893489.355    85555451.548 8
 14 11 14  3 55  0.0000000  0  8G14G32G25G20G16G29G23G31
  22972741.883   120722455.689 7  22972748.012    94069726.88344
  21587926.555   113445327.357 8  21587931.266    88399014.26446
  24700320.430   129801023.717 6  24700327.047   101143786.993 6
  22163505.844   116470075.139 7  22163509.445    90755889.71645
  22088413.633   116075426.960 7  22088417.930    90448402.30245
  23797203.844   125055162.273 7  23797209.617    97445620.496 6
  24160207.227   126962708.753 7  24160211.125    98932028.82444
  20978827.297   110244546.160 8  20978830.809    85904911.072 8
 14 11 14  4  0  0.0000000  0  8G14G32G25G20G16G29G23G31
  23125836.672   121526975.390 6  23125841.977    94696624.74444
  21689116.461   113977083.194 8  21689121.000    88813369.20646
  24906299.078   130883454.325 6  24906306.629   101987239.373 6
  22127958.477   116283276.411 7  22127962.500    90610332.27645
  21902335.586   115097580.754 8  21902339.980    89686444.50346
  23761754.992   124868876.529 7  23761759.934    97300462.967 6
  23974885.070   125988831.274 7  23974887.824    98173163.53044
  21067850.156   110712363.846 8  21067854.141    86269444.285 8
 14 11 14  4  5  0.0000000  0  8G14G32G25G20G16G29G23G31
  23283498.367   122355484.945 6  23283504.648    95342216.03244
  21798876.391   114553878.394 8  21798882.012    89262819.78746
  25114262.805   131976308.778 6  25114270.816   102838814.205 6
  22103544.875   116154981.207 7  22103549.195    90510362.00745
  21723306.289   114156777.940 8  21723310.848    88953351.70746
  23736190.891   124734539.271 7  23736196.688    97195784.685 6
  23790105.453   125017811.507 7  23790108.543    97416525.05044
  21160356.039   111198484.563 8  21160359.520    86648239.585 8
 14 11 14  4 10  0.0000000  0  7G14G32G20G16G29G23G31
  23445584.570   123207255.669 6  23445590.547    96005933.00244
  21916828.516   115173718.299 7  21916834.148    89745811.62846
  22090297.586   116085366.950 7  22090301.770    90456117.07145
  21551780.063   113255402.631 8  21551784.813    88250981.63446
  23720735.648   124653317.847 7  23720740.199    97132495.381 6
  23606178.945   124051273.172 7  23606181.773    96663378.50945
  21256155.297   111701913.882 8  21256159.652    87040522.086 8
 14 11 14  4 15  0.0000000  0  7G14G32G20G16G29G23G31
  23611944.906   124081486.524 6  23611950.523    96687151.35143
  22042567.047   115834477.309 8  22042572.813    90260688.49846
  22088203.742   116074363.554 7  22088208.152    90447542.84445
  21388190.086   112395732.444 8  21388194.211    87581109.03946
  23715565.805   124626154.640 7  23715572.008    97111329.256 6
  23423433.922   123090941.559 7  23423437.148    95915068.29945
  21355072.664   112221727.221 8  21355076.570    87445571.362 8
 14 11 14  4 20  0.0000000  0  7G14G32G20G16G29G23G31
  23782412.289   124977292.953 6  23782416.754    97385181.81243
  22175663.000   116533898.692 8  22175668.523    90805691.89246
  22097200.852   116121642.985 7  22097205.461    90484383.85045
  21232944.070   111579910.567 8  21232948.313    86945403.95246
  23720817.297   124653749.439 7  23720822.113    97132831.752 6
  23242214.383   122138626.623 7  23242216.914    95173004.94845
  21456941.930   112757054.568 8  21456946.082    87862709.428 8
 14 11 14  4 25  0.0000000  0  7G14G32G20G16G29G23G31
  23956803.039   125893722.491 6  23956810.230    98099282.31643
  22315666.313   117269621.991 8  22315671.848    91378982.53646
  22117179.453   116226630.508 7  22117183.625    90566192.27645
  21086424.070   110809946.244 8  21086428.848    86345431.98046
  23736576.922   124736568.018 7  23736583.109    97197365.699 6
  23062883.758   121196238.125 7  23062886.215    94438676.40545
  21561611.922   113307099.100 8  21561616.027    88291315.444 8
 14 11 14  4 30  0.0000000  0  7G14G32G20G16G29G23G31
  24134922.922   126829747.036 6  24134929.816    98828651.67643
  22462110.227   118039188.877 7  22462115.602    91978644.76345
  22147983.086   116388502.905 7  22147986.617    90692326.53345
  20948984.172   110087693.290 8  20948988.469    85782637.76146
  23762886.641   124874828.214 7  23762892.727    97305101.002 7
  22885821.688   120265770.832 7  22885823.906    93713637.15445
  21668942.750   113871124.304 8  21668947.070    88730815.472 8
 14 11 14  4 35  0.0000000  0  8G14G32G27G20G16G29G23G31
  24316560.328   127784258.927 6  24316565.598    99572426.80043
  22614509.547   118840052.878 7  22614515.418    92602694.40645
  25112991.539   131969630.182 6  25113000.391   102833526.124 6
  22189406.852   116606184.672 7  22189410.539    90861948.55445
  20820942.406   109414830.198 8  20820946.434    85258329.06346
  23799741.977   125068499.224 7  23799747.148    97456013.475 7
  22711422.523   119349297.648 7  22711424.602    92999502.37145
  21778804.641   114448451.452 8  21778808.160    89180680.660 8
 14 11 14  4 40  0.0000000  0  8G14G32G27G20G16G29G23G31
  24501495.078   128756094.039 6  24501502.148   100329700.25843
  22772369.367   119669609.459 7  22772374.758    93249101.88445
  24915509.938   130931852.897 6  24915518.520   102024868.055 7
  22241203.336   116878378.549 7  22241207.156    91074047.58345
  20702587.156   108792868.213 8  20702590.691    84773683.51446
  23847090.227   125317319.191 6  23847095.418    97649899.191 7
  22540097.789   118448982.772 7  22540100.328    92297958.44445
  21891082.336   115038475.515 7  21891086.789    89640439.550 7
 14 11 14  4 45  0.0000000  0  8G14G32G27G20G16G29G23G31
  24689491.164   129744012.903 6  24689496.328   101099506.44343
  22935180.867   120525188.444 7  22935186.742    93915786.60445
  24716315.258   129885076.347 6  24716323.156   101209198.283 7
  22303082.391   117203552.782 7  22303086.707    91327429.88645
  20594166.953   108223119.157 8  20594170.809    84329723.41547
  23904837.219   125620777.473 6  23904842.203    97886360.185 6
  22372272.188   117567052.718 7  22372274.746    91610740.45246
  22005671.117   115640641.774 7  22005675.270    90109659.863 7
 14 11 14  4 50  0.0000000  0  9G14G32G27G09G20G16G29G23G31
  24880300.063   130746720.864 6  24880306.910   101880836.66643
  23102428.563   121404082.604 7  23102435.355    94600638.94045
  24515922.094   128832002.430 7  24515930.605   100388621.476 7
  24768273.180   130158084.491 6  24768279.727   101421954.108 6
  22374712.000   117579968.605 7  22374715.594    91620740.76545
  20495895.406   107706699.338 8  20495899.301    83927318.52846
  23972840.430   125978136.565 6  23972844.605    98164821.825 6
  22208382.484   116705807.060 8  22208384.621    90939640.15046
  22122477.539   116254460.450 8  22122480.828    90587959.973 7
 14 11 14  4 55  0.0000000  0  8G32G27G09G20G16G29G23G31
  23273592.711   122303549.933 7  23273598.766    95301522.30945
  24314857.891   127775405.241 6  24314867.117    99565299.197 7
  24570980.875   129121309.822 6  24570987.992   100614077.859 6
  22455723.125   118005684.052 7  22455727.473    91952466.87545
  20407945.203   107244516.470 8  20407948.871    83567176.21347
  24050916.313   126388433.478 7  24050922.652    98484533.686 7
  22048876.945   115867598.619 8  22048878.887    90286490.86846
  22241416.828   116879493.446 7  22241421.008    91074998.521 7
 14 11 14  5  0  0.0000000  0  8G32G27G09G20G16G29G23G31
  23448146.141   123220836.485 7  23448151.406    96016290.83644
  24113664.258   126718135.839 7  24113671.023    98741453.263 6
  24374679.945   128089741.757 6  24374686.973    99810258.908 7
  22545711.813   118478578.226 7  22545715.680    92320955.53245
  20330448.586   106837269.507 8  20330452.164    83249841.02747
  24138844.516   126850496.729 6  24138850.023    98844582.984 6
  21894212.852   115054837.315 8  21894215.324    89653170.44246
  22362419.258   117515363.223 8  22362423.102    91570481.266 7
 14 11 14  5  5  0.0000000  0  8G32G27G09G20G16G29G23G31
  23625563.734   124153169.866 7  23625569.086    96742784.10744
  23912897.258   125663097.248 7  23912905.230    97919345.686 6
  24179748.641   127065372.326 6  24179755.902    99012049.086 7
  22644242.383   118996357.120 7  22644246.547    92724419.25845
  20263495.914   106485432.473 8  20263499.000    82975682.43746
  24236359.797   127362944.354 7  24236365.367    99243892.669 6
  21744855.969   114269961.794 8  21744858.438    89041579.19846
  22485419.367   118161732.773 7  22485423.734    92074145.677 7
 14 11 14  5 10  0.0000000  0  8G32G27G09G20G16G29G23G31
  23805318.758   125097789.082 7  23805325.223    97478850.72744
  23713119.828   124613257.351 7  23713127.004    97101289.003 7
  23986584.711   126050288.608 6  23986591.516    98221075.003 7
  22750849.148   119556581.450 7  22750853.641    93160957.56644
  20207137.875   106189269.400 7  20207141.836    82744906.12647
  24343166.133   127924212.271 6  24343172.102    99681244.241 6
  21601277.086   113515447.419 8  21601279.211    88453645.96346
  22610364.508   118818320.718 7  22610368.977    92585772.353 7
 14 11 14  5 15  0.0000000  0  8G32G27G09G20G16G29G23G31
  23986887.008   126051939.871 7  23986893.930    98222344.50244
  23514903.422   123571628.164 7  23514912.090    96289630.391 7
  23795599.172   125046655.242 7  23795606.145    97439023.353 7
  22865043.258   120156673.209 7  22865048.012    93628561.22845
  20161382.195   105948820.499 7  20161385.883    82557543.45647
  24458931.094   128532559.893 7  24458935.945   100155281.425 6
  21463947.703   112793777.514 8  21463950.000    87891305.83546
  22737207.438   119484885.130 7  22737211.355    93105172.911 7
 14 11 14  5 20  0.0000000  0  8G32G27G09G20G16G29G23G31
  24169750.211   127012891.130 6  24169757.012    98971137.42343
  23318831.836   122541263.768 7  23318839.234    95486749.478 7
  23607219.469   124056715.242 7  23607225.762    96667641.870 7
  22986311.992   120793942.730 6  22986316.520    94125134.68844
  20126195.242   105763913.742 8  20126198.512    82413460.34247
  24583292.867   129186087.846 6  24583298.168   100664524.051 6
  21333341.898   112107439.747 8  21333343.988    87356497.20646
  22865910.914   120161225.270 7  22865914.984    93632190.875 7
 14 11 14  5 25  0.0000000  0  8G32G27G09G20G16G29G23G31
  24353394.602   127977935.447 6  24353399.711    99723119.60444
  23125488.594   121525243.653 7  23125496.781    94695045.982 7
  23421885.406   123082778.301 7  23421892.953    95908730.292 7
  23114123.422   121465595.042 7  23114127.742    94648499.84044
  20101503.969   105634160.639 7  20101507.637    82312354.09446
  24715862.648   129882749.338 6  24715868.086   101207377.257 6
  21209928.492   111458900.016 8  21209931.148    86851141.61746
  22996442.539   120847172.608 7  22996447.188    94166694.949 7
 14 11 14  5 30  0.0000000  0  8G32G27G09G20G16G29G23G31
  24537306.563   128944406.615 7  24537312.898   100476213.74544
  22935467.469   120526673.965 7  22935474.527    93916940.072 7
  23240049.281   122127224.758 7  23240056.148    95164143.233 7
  23247931.563   122168761.967 7  23247935.348    95196421.86444
  20087196.117   105558973.135 7  20087199.910    82253766.51247
  24856227.977   130620374.201 6  24856233.344   101782149.930 6
  21094173.156   110850599.515 8  21094175.871    86377141.29146
  23128777.195   121542593.268 7  23128781.383    94708580.842 7
 14 11 14  5 35  0.0000000  0  9G19G32G27G09G20G16G29G23G31
  25089435.555   131845822.868 6  25089438.828   102737054.35143
  24720991.875   129909673.198 7  24720997.797   101228369.33944
  22749356.805   119548661.169 7  22749363.383    93154852.609 7
  23062173.977   121192483.458 7  23062180.754    94435773.551 7
  23387176.852   122900501.050 6  23387182.293    95766607.93544
  20083121.922   105537562.056 7  20083125.305    82237082.60947
  25003953.273   131396674.741 6  25003958.570   102387059.369 5
  20986528.008   110284920.966 8  20986530.164    85936352.83746
  23262892.500   122247373.962 7  23262897.320    95257760.192 7
 14 11 14  5 40  0.0000000  0  9G19G32G27G09G20G16G23G07G31
  24869682.648   130691016.135 6  24869686.648   101837205.17044
  24903956.250   130871158.257 6  24903962.449   101977578.24643
  22567750.492   118594313.666 7  22567758.477    92411205.603 7
  22888731.273   120281036.918 7  22888737.887    93725555.676 7
  23531291.500   123657825.289 7  23531295.152    96356730.51043
  20089096.078   105568955.510 7  20089099.367    82261545.11447
  20887435.234   109764185.482 8  20887437.793    85530584.94246
  25197185.922   132412047.212 6  25197190.262   103178272.645 6
  23398772.977   122961428.428 7  23398777.340    95814165.874 7
 14 11 14  5 45  0.0000000  0  9G19G32G27G09G20G16G23G07G31
  24648732.063   129529913.327 6  24648735.184   100932450.25843
  25085719.430   131826333.680 6  25085726.477   102721870.69843
  22391234.633   117666717.647 7  22391242.273    91688403.856 8
  22720200.070   119395399.473 7  22720206.492    93035448.753 7
  23679699.750   124437714.493 7  23679704.063    96964436.16244
  20104900.000   105652006.025 7  20104903.215    82326259.85947
  20797318.766   109290621.524 8  20797321.750    85161574.07046
  25038518.703   131578245.116 7  25038523.156   102528556.552 5
  23536403.836   123684682.962 7  23536408.770    96377740.326 7
 14 11 14  5 50  0.0000000  0  9G19G32G27G09G20G16G23G07G31
  24427125.609   128365363.943 6  24427128.191   100025009.53543
  25265813.063   132772731.966 6  25265819.445   103459323.65243
  22220391.430   116768929.524 7  22220398.496    90988829.058 8
  22557063.813   118538113.977 7  22557070.078    92367434.224 7
  23831822.188   125237125.120 6  23831827.094    97587353.34444
  20130284.961   105785405.986 8  20130288.512    82430207.91147
  20716583.773   108866354.624 8  20716586.273    84830976.50846
  24879334.352   130741729.122 7  24879339.398   101876726.050 6
  23675775.266   124417078.516 7  23675780.305    96948437.723 7
 14 11 14  5 55  0.0000000  0  9G19G32G27G09G20G16G23G07G31
  24205418.578   127200291.550 6  24205422.145    99117161.28044
  25443778.359   133707948.518 4
  22055791.867   115903956.947 8  22055799.613    90314824.822 8
  22399809.359   117711735.215 8  22399816.000    91723502.809 8
  23987080.602   126053011.419 6  23987085.902    98223108.58243
  20164974.688   105967702.630 7  20164978.223    82572257.26147
  20645609.391   108493380.208 8  20645612.090    84540347.08447
  24719674.930   129902712.988 7  24719680.855   101222947.409 6
  23816874.320   125158561.934 7  23816880.137    97526216.580 7
 14 11 14  6  0  0.0000000  0  8G19G27G09G20G16G23G07G31
  23984183.672   126037692.886 7  23984188.453    98211240.75345
  21897997.711   115074744.744 8  21898004.449    89668685.826 8
  22248922.258   116918818.350 7  22248928.586    91105645.634 8
  24144894.859   126882333.698 6  24144900.961    98869333.56943
  20208667.961   106197312.231 8  20208671.367    82751173.85247
  20584747.438   108173550.564 8  20584749.727    84291129.17946
  24559589.766   129061459.153 7  24559594.773   100567424.885 6
  23959694.141   125909083.777 7  23959700.332    98111038.272 7
 14 11 14  6  5  0.0000000  0  8G19G27G09G20G16G23G07G31
  23764001.180   124880628.130 7  23764003.727    97309632.17044
  21747553.766   114284156.726 8  21747560.402    89052643.649 8
  22104886.250   116161902.905 8  22104891.668    90515841.450 8
  24304692.094   127722070.168 6  24304697.031    99523673.52643
  20261041.859   106472538.886 8  20261045.652    82965636.19947
  20534320.102   107908552.197 8  20534322.035    84084636.94046
  24399138.375   128218283.261 6  24399144.512    99910404.880 6
  24104223.719   126668593.206 6  24104230.766    98702863.215 7
 14 11 14  6 10  0.0000000  0  9G19G27G09G20G16G23G07G10G31
  23545464.500   123732213.180 7  23545467.918    96414763.73645
  21604985.359   113534957.564 7  21604992.320    88468852.421 8
  21968177.273   115443496.445 7  21968183.605    89956044.323 8
  24465899.852   128569227.933 6  24465905.711   100183796.43943
  20321754.516   106791586.391 8  20321758.113    83214244.65147
  20494612.258   107699887.006 8  20494614.605    83922040.64946
  24238392.063   127373557.626 7  24238396.473    99252177.396 6
  24691275.273   129753491.004 6  24691280.305   101106656.98443
  24250455.219   127437030.814 7  24250459.926    99301645.074 6
 14 11 14  6 15  0.0000000  0  9G19G27G09G20G16G23G07G10G31
  23329175.898   122595613.176 7  23329181.465    95529101.75445
  21470798.086   112829798.191 7  21470804.797    87919377.871 8
  21839265.383   114766060.451 7  21839272.449    89428172.222 8
  24627960.500   129420856.560 6  24627965.914   100847402.95243
  20390450.117   107152582.449 8  20390453.125    83495540.30747
  20465873.086   107548860.213 8  20465875.430    83804357.40446
  24077433.586   126527717.459 7  24077438.629    98593081.454 6
  24663764.242   129608919.304 5  24663768.641   100994003.69142
  24398370.047   128214330.772 7  24398374.488    99907332.916 6
 14 11 14  6 20  0.0000000  0  9G19G27G09G20G16G23G07G10G31
  23115747.539   121474035.038 7  23115750.617    94655145.08245
  21345470.031   112171198.331 7  21345477.359    87406183.458 8
  21718607.047   114131993.550 7  21718612.719    88934094.222 8
  24790318.344   130274053.589 6  24790323.492   101512231.77842
  20466758.984   107553590.009 8  20466762.238    83808013.74147
  20448309.352   107456563.728 8  20448311.586    83732438.01346
  23916358.898   125681263.839 7  23916364.902    97933507.451 6
  24646625.594   129518855.888 6  24646630.441   100923824.39643
  24547956.000   129000412.214 7  24547962.367   100519863.353 6
 14 11 14  6 25  0.0000000  0  9G19G27G09G20G16G23G07G10G31
  22905790.211   120370708.249 7  22905793.977    93795410.26245
  21229452.258   111561521.722 7  21229459.152    86931111.053 8
  21606640.141   113543606.064 8  21606646.711    88475610.533 8
  24952433.414   131125971.357 6  24952438.699   102176063.73843
  20550304.586   107992623.443 8  20550308.246    84150117.68847
  20442085.500   107423857.353 8  20442088.180    83706952.43046
  23755276.102   124834764.235 7  23755280.195    97273897.559 7
  24639819.578   129483093.151 6  24639825.621   100895957.28443
  24699194.859   129795173.988 6  24699200.348   101139157.675 6
 14 11 14  6 30  0.0000000  0  9G19G27G09G20G16G23G07G10G31
  22699924.813   119288880.688 7  22699928.801    92952428.03045
  21123162.102   111002963.055 8  21123168.863    86495870.787 8
  21503786.391   113003106.254 8  21503792.422    88054441.861 8
  25113774.500   131973823.769 6  25113779.133   102836727.97942
  20640701.461   108467662.898 8  20640704.754    84520278.28646
  20447319.695   107451360.027 8  20447321.742    83728382.98247
  23594304.766   123988857.080 7  23594308.934    96614749.455 6
  24643263.430   129501187.760 6  24643269.211   100910056.86343
  24852059.984   130598490.336 6  24852067.523   101765118.036 6
 14 11 14  6 35  0.0000000  0  8G19G27G09G16G23G07G10G31
  22498769.703   118231799.890 7  22498773.133    92128729.08645
  21026981.461   110497530.760 8  21026987.500    86102027.676 8
  21410442.438   112512580.529 8  21410448.598    87672214.025 8
  20737562.789   108976672.511 8  20737566.027    84916909.10546
  20464080.828   107539441.542 8  20464083.035    83797017.80147
  23433582.156   123144257.257 7  23433586.301    95956620.141 7
  24656826.219   129572460.839 6  24656831.816   100965594.25643
  25006526.664   131410210.854 6  25006532.566   102397627.127 6
 14 11 14  6 40  0.0000000  0  8G19G27G09G16G23G07G10G31
  22302939.539   117202708.460 7  22302942.785    91326840.03245
  20941253.820   110047032.244 8  20941260.758    85750990.071 8
  21326978.625   112073975.955 8  21326985.004    87330444.216 8
  20840500.563   109517614.003 8  20840503.906    85338421.88446
  20492392.438   107688216.835 8  20492394.914    83912946.46146
  23273259.852   122301757.677 7  23273263.695    95300127.259 6
  24680335.250   129696002.043 6  24680340.535   101061860.00143
  25162557.711   132230157.075 5  25162563.473   103036545.876 6
 14 11 14  6 45  0.0000000  0  7G19G27G09G16G23G07G10
  22113047.391   116204822.449 7  22113050.863    90549266.88446
  20866284.570   109653064.318 8  20866290.645    85444002.258 8
  21253736.695   111689086.543 8  21253743.320    87030530.426 8
  20949129.703   110088464.742 8  20949132.941    85783240.59146
  20532226.328   107897546.344 8  20532228.555    84076060.22746
  23113503.742   121462238.050 7  23113508.402    94645956.404 7
  24713576.813   129870684.600 6  24713581.941   101197976.15843
 14 11 14  6 50  0.0000000  0  8G19G27G09G21G16G23G07G10
  21929697.273   115241313.419 7  21929700.918    89798480.96546
  20802330.914   109316987.118 8  20802337.227    85182124.071 8
  21191023.133   111359522.171 8  21191029.305    86773727.000 8
  25906163.273   136137792.218 6  25906167.840   106081426.11842
  21063068.453   110687217.658 7  21063072.609    86249801.23046
  20583505.953   108167023.651 8  20583508.359    84286042.39046
  22954497.930   120626654.470 7  22954502.461    93994852.578 7
  24756292.930   130095156.707 6  24756297.844   101372889.26643
 14 11 14  6 55  0.0000000  0  8G19G27G09G21G16G23G07G10
  21753481.203   114315290.091 8  21753484.371    89076904.69046
  20749606.164   109039919.143 8  20749612.777    84966227.088 8
  21139106.203   111086697.899 8  21139112.633    86561136.625 8
  25884550.391   136024211.206 6  25884553.656   105992921.51942
  21181941.422   111311897.952 7  21181945.059    86736565.03746
  20646104.688   108495980.799 8  20646107.203    84542372.49846
  22796438.305   119796046.233 7  22796442.457    93347625.528 7
  24808186.680   130367861.413 6  24808192.344   101585386.40143
 14 11 14  7  0  0.0000000  0  9G19G13G27G09G21G16G23G07G10
  21584975.594   113429790.847 7  21584979.480    88386905.66546
  24643510.453   129502471.108 5  24643516.625   100911078.79642
  20708278.250   108822737.659 8  20708284.813    84796994.887 8
  21098217.875   110871827.908 8  21098223.996    86393705.420 8
  25870185.953   135948729.605 6  25870190.563   105934104.86642
  21305382.313   111960583.127 8  21305385.785    87242033.89446
  20719847.953   108883503.896 8  20719850.883    84844338.37346
  22639541.563   118971548.149 7  22639545.148    92705159.608 7
  24868927.648   130687055.863 6  24868933.137   101834109.23343
 14 11 14  7  5  0.0000000  0  9G19G13G27G09G21G16G23G07G10
  21424740.164   112587748.296 8  21424743.508    87730768.99346
  24443476.078   128451276.145 6  24443479.691   100091965.68143
  20678462.719   108666054.901 8  20678468.672    84674904.555 8
  21068544.391   110715893.854 7  21068551.137    86272198.291 8
  25863237.617   135912214.649 6  25863242.125   105905651.87842
  21433033.438   112631393.357 8  21433037.023    87764743.07546
  20804513.031   109328421.090 8  20804515.828    85191026.96146
  22484038.180   118154373.159 7  22484042.578    92068400.007 7
  24938147.016   131050810.743 6  24938153.219   102117554.39843
 14 11 14  7 10  0.0000000  0  9G19G13G27G09G21G16G23G07G10
  21273310.953   111791983.032 8  21273314.082    87110692.45346
  24247541.383   127421633.472 7  24247545.602    99289646.77043
  20660226.859   108570227.619 8  20660232.992    84600234.054 8
  21050229.188   110619646.635 8  21050235.500    86197200.403 8
  25863839.266   135915377.687 6  25863843.609   105908116.58642
  21564549.047   113322512.480 8  21564552.688    88303277.36846
  20899832.383   109829326.383 8  20899835.164    85581342.63146
  22330176.234   117345826.426 7  22330180.254    91438363.743 7
  25015448.938   131457032.737 6  25015454.383   102434091.02842
 14 11 14  7 15  0.0000000  0 10G19G13G30G27G09G21G16G23G07G10
  21131198.383   111045178.941 8  21131201.617    86528767.43646
  24056245.063   126416365.078 6  24056249.207    98506320.89443
  24939616.016   131058491.404 5  24939623.340   102123597.549 6
  20653590.516   108535353.389 8  20653596.629    84573059.418 8
  21043368.547   110583593.902 8  21043375.129    86169107.287 8
  25872097.258   135958773.473 5
  21699597.180   114032194.720 8  21699600.570    88856276.44146
  21005494.914   110384587.809 8  21005497.840    86014013.66046
  22178222.469   116547302.336 8  22178226.609    90816137.376 7
  25100404.781   131903477.238 6  25100410.070   102781969.87643
 14 11 14  7 20  0.0000000  0 10G19G13G30G27G09G21G16G23G07G10
  20998884.734   110349866.394 8  20998887.676    85986965.71646
  23870129.234   125438318.756 7  23870133.105    97744206.91243
  24761892.094   130124551.835 6  24761899.887   101395852.562 6
  20658522.297   108561270.356 8  20658528.430    84593254.514 8
  21048011.195   110607990.703 8  21048017.930    86188117.662 8
  25888085.516   136042792.787 6  25888089.613   106007395.40642
  21837858.938   114758765.459 8  21837862.668    89422435.36146
  21121150.078   110992359.505 8  21121153.156    86487601.76346
  22028457.016   115760281.844 7  22028461.254    90202874.784 7
  25192562.156   132387769.415 6  25192568.512   103159340.10043
 14 11 14  7 25  0.0000000  0 11G19G13G30G27G09G21G16G23G07G10G11
  20876816.289   109708394.097 8  20876819.199    85487117.39646
  23689736.813   124490350.489 7  23689741.445    97005530.39844
  24583738.461   129188344.301 7  24583745.766   100666340.640 6
  20674942.484   108647559.050 8  20674948.910    84660492.533 8
