     2.11           OBSERVATION DATA    M (MIXED)           RINEX VERSION / TYPE
teqc  2013Mar15                         20141116 18:04:52UTCPGM / RUN BY / DATE
OSX ker:10.8.0|Core 2 Duo|gcc 4.2 -m64|OSX ker:10.8.0+|=+   COMMENT
teqc  2013Mar15                         20141116 17:52:23UTCCOMMENT
teqc  2013Mar15                         20141116 17:46:22UTCCOMMENT
teqc  2014Jan16     NOAA/NOS/NGS/CORS   20141115 03:12:33UTCCOMMENT
Solaris x86 5.10|AMD64|cc SC5.8 -xarch=amd64|=+|=+          COMMENT
+39.645881594 (latitude)                                    COMMENT
-079.96991451 (longitude)                                   COMMENT
+327.375      (elevation)                                   COMMENT
+.000000      (antenna height)                              COMMENT
BIT 2 OF LLI FLAGS DATA COLLECTED UNDER A/S CONDITION       COMMENT
WVMO                                                        MARKER NAME
4                                                           MARKER NUMBER
Peter J Dailey      RTI                                     OBSERVER / AGENCY
4922K62068          TRIMBLE NETR5       4.48                REC # / TYPE / VERS
30963142            TRM57971.00     NONE                    ANT # / TYPE
   856569.1150 -4842972.9950  4047997.0520                  APPROX POSITION XYZ
        0.0000        0.0000        0.0000                  ANTENNA: DELTA H/E/N
     1     1                                                WAVELENGTH FACT L1/2
     4    C1    L1    P2    L2                              # / TYPES OF OBSERV
   300.0000                                                 INTERVAL
    16                                                      LEAP SECONDS
 SNR is mapped to RINEX snr flag value [0-9]                COMMENT
  L1 & L2: min(max(int(snr_dBHz/6), 0), 9)                  COMMENT
teqc windowed: start @ 2014 Nov 14 00:00:00.000             COMMENT
teqc windowed: delta = 86400.000 sec                        COMMENT
teqc edited: all SBAS satellites excluded                   COMMENT
teqc edited: all Galileo satellites excluded                COMMENT
teqc edited: all Compass satellites excluded                COMMENT
teqc edited: all QZSS satellites excluded                   COMMENT
teqc edited: all GLONASS satellites excluded                COMMENT
Forced Modulo Decimation to 300 seconds                     COMMENT
  2014    11    14     0     0    0.0000000     GPS         TIME OF FIRST OBS
                                                            END OF HEADER
 14 11 14  0  0  0.0000000  0 10G04G12G14G15G18G21G22G24G25G31
  24231708.648   127338450.716 7  24231715.586    99224819.20344
  23369607.391   122808162.331 7  23369611.758    95694706.681 6
  21162616.992   111210452.793 8  21162620.523    86657561.82846
  24937298.094   131046527.938 6  24937303.434   102114230.490 5
  20698833.016   108773249.108 8  20698836.098    84758459.30446
  23323181.641   122564273.126 7  23323186.633    95504713.55844
  20406116.430   107235030.918 8  20406117.152    83559840.98547
  22056443.625   115907551.275 8  22056449.742    90317694.652 7
  24056967.641   126420173.392 6  24056975.887    98509325.022 6
  24026160.648   126258357.196 6  24026167.133    98383163.529 6
 14 11 14  0  5  0.0000000  0 11G04G11G12G14G15G18G21G22G24G25G31
  24087467.320   126580467.017 6  24087474.281    98634183.86343
  24931440.117   131015581.528 6  24931446.961   102090112.85643
  23265950.273   122263441.115 7  23265954.719    95270249.085 7
  21099413.742   110878315.367 8  21099416.645    86398753.70346
  25105306.992   131929413.918 7  25105313.230   102802193.106 6
  20766772.938   109130275.237 8  20766775.816    85036661.46446
  23515409.164   123574428.578 7  23515412.887    96291847.22543
  20350714.039   106943890.833 8  20350715.398    83332978.77947
  22204069.016   116683324.791 8  22204074.758    90922193.512 7
  23880222.852   125491374.960 6  23880231.285    97785586.541 6
  23811058.008   125127992.613 6  23811063.688    97502361.163 6
 14 11 14  0 10  0.0000000  0 11G04G11G12G14G15G18G21G22G24G25G31
  23951424.648   125865562.980 7  23951431.117    98077116.63144
  24838411.398   130526716.424 6  24838417.516   101709180.28743
  23170804.828   121763451.762 7  23170809.758    94880647.546 7
  21040782.070   110570209.328 8  21040785.441    86158671.33846
  25272896.359   132810099.880 6  25272902.445   103488441.288 5
  20842306.422   109527205.032 8  20842308.602    85345957.36946
  23710097.953   124597523.976 7  23710102.500    97089063.91444
  20302620.172   106691156.450 8  20302620.906    83136043.06447
  22358351.422   117494088.313 7  22358358.012    91553957.225 8
  23705920.367   124575410.292 6  23705927.578    97071848.464 6
  23598955.070   124013378.190 7  23598959.133    96633831.175 6
 14 11 14  0 15  0.0000000  0 10G04G11G12G14G18G21G22G24G25G31
  23824011.234   125195997.498 7  23824016.039    97555378.15844
  24754867.375   130087695.982 6  24754873.941   101367087.47542
  23084669.117   121310805.355 7  23084673.441    94527936.516 7
  20986668.016   110285837.871 8  20986671.746    85937083.47346
  20925447.516   109964113.576 8  20925450.281    85686405.53846
  23906711.063   125630730.655 6  23906715.180    97894159.50643
  20262120.008   106478324.942 8  20262120.539    82970200.43447
  22518802.602   118337264.716 7  22518808.938    92210977.709 7
  23534685.930   123675568.960 7  23534692.496    96370673.967 6
  23390285.594   122916814.441 7  23390289.895    95779366.589 7
 14 11 14  0 20  0.0000000  0 10G04G11G12G14G18G21G22G24G25G31
  23705628.117   124573895.642 7  23705632.648    97070624.29844
  24681034.742   129699700.480 7  24681039.695   101064754.44543
  23008004.688   120907938.180 7  23008009.902    94214014.420 7
  20937013.461   110024901.791 8  20937016.781    85733756.89746
  21016185.648   110440945.419 8  21016188.098    86057962.71346
  24104713.461   126671235.352 6  24104718.367    98704941.92543
  20229483.570   106306821.177 8  20229484.516    82836561.24647
  22684930.422   119210269.398 7  22684935.945    92891241.063 7
  23367147.117   122795156.406 6  23367156.648    95684638.745 7
  23185480.336   121840562.208 7  23185483.543    94940729.491 6
 14 11 14  0 25  0.0000000  0 10G04G11G12G14G18G21G22G24G25G31
  23596652.555   124001229.478 7  23596656.730    96624391.67144
  24617094.570   129363701.243 6  24617100.219   100802937.78843
  22941241.773   120557092.810 7  22941245.488    93940628.886 7
  20891761.883   109787105.397 8  20891765.438    85548461.14446
  21114484.797   110957512.854 8  21114487.605    86460482.65646
  24303570.992   127716245.125 5
  20204965.930   106177981.621 8  20204966.840    82736166.85747
  22856242.516   120110522.895 7  22856249.168    93592737.290 7
  23203937.438   121937477.495 7  23203945.559    95016318.148 7
  22984961.453   120786830.847 8  22984966.910    94119640.975 7
 14 11 14  0 30  0.0000000  0 11G04G11G12G14G18G21G22G24G25G31G32
  23497429.492   123479808.409 7  23497433.973    96218090.18444
  24563195.383   129080459.006 7  24563200.223   100582230.16043
  22884764.898   120260306.515 7  22884768.852    93709367.245 7
  20850859.852   109572166.016 8  20850863.016    85380976.12846
  21220285.742   111513497.876 8  21220288.191    86893717.59546
  24502763.602   128763005.752 6  24502770.027   100334738.14743
  20188803.656   106093049.098 8  20188804.656    82669985.73847
  23032253.977   121035469.865 7  23032260.813    94313475.127 7
  23045678.953   121105829.899 7  23045686.941    94368281.686 7
  22789137.602   119757779.235 7  22789142.395    93317783.228 7
  24939414.031   131057514.469 6  24939420.129   102122771.51043
 14 11 14  0 35  0.0000000  0 11G04G11G12G14G18G21G22G24G25G31G32
  23408266.719   123011261.702 7  23408272.676    95852989.38944
  24519437.188   128850512.376 6  24519442.152   100403051.55843
  22838919.750   120019392.060 7  22838923.777    93521642.083 7
  20814257.281   109379817.840 8  20814259.773    85231094.60246
  21333501.867   112108452.357 8  21333504.613    87357318.29346
  24701774.227   129808807.731 6  24701779.992   101149648.61243
  20181212.609   106053157.448 8  20181213.613    82638901.44247
  23212485.703   121982591.212 7  23212491.785    95051491.690 7
  22892997.039   120303484.213 7  22893004.566    93743077.973 7
  22598410.102   118755502.685 7  22598416.320    92536789.047 7
  24755014.648   130088500.582 6  24755021.355   101367697.49743
 14 11 14  0 40  0.0000000  0 11G01G04G11G12G14G18G22G24G25G31G32
  25075114.766   131770615.789 6  25075123.359   102678428.341 6
  23329438.781   122597015.296 7  23329442.305    95530200.53544
  24485879.813   128674169.233 6  24485884.203   100265641.59443
  22804006.492   119835919.225 8  22804010.000    93378676.630 7
  20781905.992   109209810.651 8  20781908.832    85098621.66146
  21454021.617   112741788.136 7  21454025.063    87850826.54245
  20182384.195   106059314.809 8  20182385.219    82643699.47047
  23396463.734   122949405.981 6  23396469.844    95804853.853 7
  22746504.352   119533661.657 7  22746511.816    93143216.886 7
  22413163.039   117782018.588 7  22413166.660    91778230.576 7
  24571221.797   129122662.510 7  24571228.281   100615097.56344
 14 11 14  0 45  0.0000000  0 11G01G04G11G12G14G18G22G24G25G31G32
  24934759.719   131033047.580 5  24934768.000   102103700.785 6
  23261173.477   122238286.338 7  23261180.230    95250671.88644
  24462537.898   128551504.373 6  24462542.887   100170059.02143
  22780273.070   119711205.021 7  22780277.070    93281497.061 7
  20753762.828   109061917.462 8  20753766.320    84983380.40146
  21581709.422   113412789.469 8  21581712.844    88373684.54146
  20192485.930   106112398.967 8  20192486.426    82685063.84847
  23583729.867   123933489.676 7  23583735.961    96571672.275 7
  22606801.836   118799524.254 7  22606809.320    92571162.306 7
  22233762.211   116839261.954 7  22233765.844    91043615.406 7
  24388323.273   128161530.765 7  24388329.461    99866165.38044
 14 11 14  0 50  0.0000000  0 11G01G04G11G12G14G18G22G24G25G31G32
  24802068.109   130335755.954 5  24802077.621   101560357.484 6
  23203664.773   121936072.236 7  23203668.395    95015180.60744
  24449377.711   128482363.948 6  24449385.629   100116183.78042
  22767924.063   119646310.378 7  22767927.762    93230930.103 7
  20729791.336   108935944.750 8  20729794.945    84885219.95846
  21716403.500   114120613.690 8  21716408.000    88925235.64145
  20211658.039   106213150.372 8  20211658.570    82763571.48547
  23773832.203   124932485.803 7  23773838.855    97350110.787 7
  22474476.859   118104157.274 7  22474485.414    92029318.527 7
  22060559.789   115929082.069 8  22060564.832    90334384.783 7
  24206626.219   127206717.210 6  24206630.824    99122156.03143
 14 11 14  0 55  0.0000000  0 11G01G04G11G12G14G18G22G24G25G31G32
  24677452.625   129680895.057 6  24677459.508   101050077.297 5
  23157053.453   121691134.265 7  23157058.793    94824320.15044
  24446334.375   128466357.777 7  24446338.422   100103711.81043
  22767107.500   119642020.228 7  22767110.898    93227587.385 7
  20709959.188   108831727.835 7  20709962.254    84804012.11346
  21857921.141   114864289.133 8  21857924.656    89504722.73545
  20240012.609   106362153.805 8  20240012.402    82879678.11847
  23966337.078   125944103.325 6  23966342.816    98138384.095 7
  22350098.961   117450543.067 7  22350105.926    91520009.306 7
  21893889.250   115053224.539 7  21893893.336    89651898.946 7
  24026455.492   126259907.802 7  24026460.234    98384383.31744
 14 11 14  1  0  0.0000000  0 11G01G04G11G12G14G18G22G24G25G31G32
  24561296.406   129070491.824 6  24561304.215   100574439.161 6
  23121442.695   121503990.712 8  23121446.684    94678494.38645
  24453280.859   128502864.673 6  24453284.383   100132158.93543
  22777920.180   119698842.460 7  22777923.723    93271864.697 7
  20694241.906   108749132.698 8  20694244.609    84739652.41746
  22006050.750   115642720.814 7  22006053.945    90111292.63445
  20277630.359   106559836.102 8  20277631.402    83033716.31547
  24160820.836   126966127.822 7  24160827.367    98934766.826 6
  22234209.789   116841543.089 8  22234216.211    91045464.301 7
  21734061.727   114213324.478 8  21734063.902    88997431.764 7
  23848140.734   125322861.656 7  23848145.375    97654218.09944
 14 11 14  1  5  0.0000000  0 11G01G04G11G12G14G18G22G24G25G31G32
  24453959.977   128506436.830 6  24453967.859   100134916.376 7
  23096879.375   121374912.122 7  23096883.387    94577913.86844
  24470058.906   128591037.306 7  24470063.398   100200865.12043
  22800406.727   119817009.442 7  22800410.617    93363943.080 7
  20682620.594   108688063.935 7  20682623.602    84692066.50246
  22160565.625   116454697.236 7  22160569.086    90744001.26945
  20324561.086   106806459.607 8  20324561.496    83225890.46147
  24356880.727   127996427.435 6  24356887.477    99737597.758 7
  22127328.906   116279881.602 8  22127335.422    90607806.398 7
  21581364.930   113410901.551 8  21581368.898    88372167.437 7
  23672033.188   124397413.641 7  23672037.715    96933090.33244
 14 11 14  1 10  0.0000000  0 11G01G04G11G12G14G18G22G24G25G31G32
  24355770.008   127990460.978 5  24355779.359    99732857.615 6
  23083366.102   121303912.885 6  23083371.211    94522589.95643
  24496466.047   128729805.945 6  24496469.410   100308996.87843
  22834557.078   119996469.515 7  22834559.820    93503782.261 7
  20675084.219   108648461.604 7  20675087.340    84661207.67246
  22321210.234   117298891.970 7  22321214.543    91401815.04945
  20380822.492   107102113.394 8  20380823.316    83456269.98247
  24554125.719   129032955.525 5  24554132.004   100545281.705 7
  22029943.539   115768120.555 8  22029949.945    90209031.938 7
  21436065.773   112647348.616 8  21436069.645    87777191.589 8
  23498492.984   123485460.858 7  23498497.695    96222478.64844
 14 11 14  1 15  0.0000000  0 11G01G04G11G12G14G18G22G24G25G31G32
  24267030.305   127524124.902 7  24267038.004    99369479.422 6
  23080862.961   121290755.454 6  23080867.664    94512337.49044
  24532256.211   128917889.505 6  24532260.258   100455555.81543
  22880308.094   120236896.597 7  22880312.074    93691128.150 7
  20671629.016   108630304.967 7  20671632.105    84647059.79646
  22487713.852   118173871.826 7  22487717.016    92083617.18444
  20446397.313   107446713.729 8  20446398.039    83724789.65547
  24752183.352   130073755.891 6  24752190.211   101356294.811 6
  21942507.781   115308642.881 7  21942513.570    89850997.704 7
  21298402.289   111923926.535 8  21298406.273    87213486.513 8
  23327895.508   122588962.670 7  23327899.395    95523909.17345
 14 11 14  1 20  0.0000000  0 11G01G04G11G12G14G18G22G24G25G31G32
  24187998.070   127108804.098 7  24188005.105    99045853.289 7
  23089271.898   121334944.110 7  23089277.910    94546770.23244
  24577149.391   129153801.789 6  24577153.645   100639383.80843
  22937547.320   120537690.515 7  22937550.484    93925513.120 7
  20672258.422   108633611.066 8  20672261.039    84649636.11246
  22659782.992   119078101.012 7  22659787.059    92788211.02944
  20521237.070   107839998.109 8  20521237.410    84031244.97647
  24950698.805   131116961.140 6  24950704.945   102169182.135 6
  21865436.227   114903632.038 7  21865442.434    89535405.156 8
  21168589.914   111241755.930 8  21168593.266    86681925.397 8
  23160621.469   121709934.874 7  23160625.258    94838952.99445
 14 11 14  1 25  0.0000000  0 11G01G04G11G12G14G18G22G24G25G31G32
  24118896.211   126745680.542 6  24118904.441    98762900.342 6
  23108451.758   121435737.879 7  23108456.859    94625310.94744
  24630825.594   129435870.414 6  24630829.145   100859177.65543
  23006111.055   120897993.213 8  23006114.270    94206268.534 7
  20676983.211   108658440.535 8  20676986.012    84668983.78346
  22837109.688   120009956.268 7  22837114.367    93514331.52745
  20605258.359   108281531.875 8  20605258.992    84375297.20546
  25149335.523   132160804.855 6  25149342.027   102982567.036 6
  21799104.766   114555059.227 7  21799111.656    89263790.294 8
  21046812.859   110601818.067 8  21046816.234    86183273.017 8
  22997065.766   120850446.898 7  22997069.742    94169222.55345
 14 11 14  1 30  0.0000000  0 10G01G04G11G12G14G18G22G25G31G32
  24059914.930   126435724.124 7  24059922.047    98521375.997 6
  23138215.883   121592145.672 7  23138220.914    94747187.22544
  24692931.313   129762239.434 6  24692934.594   101113491.21543
  23085786.242   121316688.756 8  23085788.281    94532524.888 6
  20685821.961   108704889.697 7  20685825.016    84705177.98346
  23019366.938   120967719.507 7  23019370.539    94260640.07444
  20698343.570   108770698.838 8  20698344.227    84756466.18347
  21743843.141   114264659.055 7  21743849.703    89037504.720 8
  20933230.398   110004941.194 8  20933233.535    85718174.542 8
  22837629.375   120012606.685 7  22837633.996    93516360.50845
 14 11 14  1 35  0.0000000  0 10G01G04G11G12G14G18G22G25G31G32
  24011190.414   126179684.537 6  24011198.613    98321865.001 6
  23178328.586   121802936.029 7  23178333.438    94911439.50245
  24763082.148   130130887.275 6  24763087.059   101400749.31143
  23176314.188   121792419.878 7  23176316.859    94903224.531 6
  20698800.305   108773091.621 7  20698803.449    84758322.37146
  23206212.000   121949595.338 7  23206216.789    95025737.60444
  20800343.617   109306710.221 8  20800344.727    85174137.28246
  21699934.359   114033917.910 7  21699940.500    88857706.658 7
  20827971.352   109451800.707 8  20827974.590    85287156.261 8
  22682720.969   119198555.811 7  22682725.563    92882035.46445
 14 11 14  1 40  0.0000000  0 10G01G04G11G12G14G18G22G25G31G32
  23972828.977   125978086.098 7  23972835.324    98164775.349 6
  23228511.367   122066649.737 7  23228516.074    95116930.80345
  24840865.758   130539640.336 6  24840868.738   101719258.19443
  23277395.266   122323604.582 7  23277398.758    95317134.656 6
  20715950.211   108863216.525 7  20715953.336    84828549.60046
  23397289.680   122953715.170 6  23397294.023    95808168.08543
  20911073.922   109888605.363 8  20911075.402    85627561.94046
  21667611.977   113864062.074 8  21667617.699    88725351.667 8
  20731133.945   108942917.275 8  20731137.383    84890623.963 8
  22532751.008   118410460.943 7  22532754.961    92267935.83045
 14 11 14  1 45  0.0000000  0 10G01G04G11G12G14G18G22G25G31G32
  23944881.039   125831222.798 6  23944887.695    98050336.394 6
  23288446.969   122381613.685 7  23288451.711    95362357.16944
  24925841.617   130986193.948 6  24925845.699   102067222.01143
  23388688.344   122908454.098 7  23388691.762    95772861.503 6
  20737311.602   108975472.027 8  20737315.246    84916021.47446
  23592233.141   123978149.189 6  23592237.512    96606427.86843
  21030323.320   110515264.326 8  21030324.977    86115867.43546
  21647057.977   113756051.254 8  21647063.918    88641187.549 8
  20642788.586   108478660.595 8  20642791.605    84528865.784 8
  22388135.938   117650507.212 7  22388139.184    91675764.31345
 14 11 14  1 50  0.0000000  0 10G01G04G11G12G14G18G22G25G31G32
  23927359.484   125739150.686 6  23927368.012    97978591.906 7
  23357777.992   122745948.796 7  23357781.809    95646254.75944
  25017549.102   131468119.524 6  25017553.207   102442748.39643
  23509817.195   123544987.158 7  23509820.879    96268861.121 7
  20762930.188   109110095.826 8  20762932.773    85020923.13946
  23790664.695   125020911.265 7  23790669.715    97418969.23943
  21157847.930   111185405.837 8  21157848.570    86638055.42246
  21638402.742   113710565.659 8  21638408.258    88605744.326 8
  20562975.789   108059241.619 8  20562978.359    84202046.036 8
  22249293.539   116920882.285 8  22249296.129    91107225.63046
 14 11 14  1 55  0.0000000  0 10G01G04G11G12G14G18G22G25G31G32
  23920231.734   125701688.893 6  23920239.867    97949400.950 7
  23436110.266   123157589.665 6  23436115.984    95967013.58744
  25115506.523   131982886.758 6  25115509.805   102843865.70442
  23640370.508   124231049.632 7  23640373.664    96803455.034 7
  20792856.391   109267359.095 8  20792858.840    85143465.95446
  23992197.180   126079966.801 6  23992200.504    98244206.84143
  21293374.289   111897601.718 7  21293375.309    87193012.99046
  21641721.156   113728005.191 8  21641726.785    88619333.699 8
  20491707.125   107684721.216 8  20491709.594    83910212.147 8
  22116636.219   116223767.765 8  22116640.734    90564019.66646
 14 11 14  2  0  0.0000000  0 10G01G04G11G12G14G18G22G25G31G32
  23923413.430   125718414.521 6  23923422.570    97962433.875 7
  23523018.094   123614293.825 7  23523023.684    96322887.06044
  25219213.102   132527873.118 6  25219217.730   103268530.36142
  23779909.945   124964332.480 6  23779912.980    97374844.062 6
  20827146.016   109447553.789 8  20827149.215    85283877.40446
  24196434.680   127153238.234 6  24196438.766    99080521.50543
  21436604.250   112650278.032 8  21436605.316    87779513.74946
  21657035.031   113808482.933 8  21657040.988    88682043.722 7
  20428964.063   107355006.822 8  20428966.887    83653291.981 8
  21990576.953   115561322.548 8  21990581.453    90047828.75146
 14 11 14  2  5  0.0000000  0 10G01G04G11G12G14G18G22G25G31G32
  23936782.469   125788668.991 6  23936791.719    98017177.630 7
  23618045.664   124113662.037 7  23618049.348    96712004.84944
  25328159.273   133100390.747 5
  23927969.117   125742390.883 6  23927972.770    97981123.066 6
  20865860.125   109650996.070 8  20865863.324    85442403.81746
  24402975.586   128238617.116 6  24402979.660    99926270.66743
  21587211.914   113441729.231 8  21587212.391    88396228.67146
  21684313.094   113951829.616 8  21684319.266    88793742.472 8
  20374702.219   107069858.714 8  20374704.090    83431098.782 8
  21871520.195   114935672.130 8  21871524.355    89560309.02846
 14 11 14  2 10  0.0000000  0  9G01G04G12G14G18G22G25G31G32
  23960169.086   125911560.587 7  23960176.152    98112937.238 6
  23720708.430   124653155.106 7  23720711.813    97132388.90345
  24084062.867   126562666.607 7  24084066.102    98620299.037 6
  20909060.836   109878019.902 8  20909063.551    85619305.49346
  24611415.266   129333969.902 6  24611419.953   100779791.70443
  21744851.555   114270127.566 7  21744852.738    89041733.54746
  21723469.438   114157596.976 7  21723475.066    88954080.714 7
  20328847.992   106828896.096 8  20328851.109    83243335.808 8
  21759859.609   114348893.767 8  21759863.414    89103079.26146
 14 11 14  2 15  0.0000000  0  9G01G04G12G14G20G22G25G31G32
  23993360.367   126085974.948 7  23993364.586    98248844.661 6
  23830500.406   125230115.765 7  23830503.445    97581968.44544
  24247686.359   127422509.968 7  24247689.676    99290306.710 6
  20956816.297   110128975.441 8  20956818.555    85814855.22346
  24844051.781   130556377.089 6  24844056.539   101732252.39443
  21909152.430   115133535.036 7  21909154.703    89714518.23746
  21774367.320   114425068.948 8  21774373.535    89162500.448 7
  20291306.125   106631608.447 8  20291307.473    83089605.263 8
  21655980.406   113803006.205 8  21655984.605    88677712.42046
 14 11 14  2 20  0.0000000  0  9G01G04G12G14G20G22G25G31G32
  24036097.758   126310575.121 6  24036106.426    98423858.015 7
  23946894.117   125841774.707 6  23946899.914    98058585.68444
  24418316.734   128319188.246 6  24418321.590    99989016.825 6
  21009193.555   110404216.559 8  21009195.902    86029328.76846
  24649210.852   129532480.775 6  24649214.344   100934411.65043
  22079727.305   116029909.329 7  22079729.355    90412991.29046
  21836820.539   114753262.426 8  21836827.098    89418235.654 7
  20261951.914   106477352.233 8  20261953.773    82969405.679 8
  21560251.172   113299945.626 8  21560254.234    88285717.27546
 14 11 14  2 25  0.0000000  0  9G01G04G12G14G20G22G25G31G32
  24088096.445   126583816.566 7  24088102.988    98636773.192 7
  24069348.859   126485276.582 6  24069354.297    98560015.52743
  24595429.680   129249913.596 7  24595432.805   100714257.303 6
  21066259.617   110704102.260 8  21066262.313    86263005.87446
  24458047.289   128527907.907 6
  22256169.227   116957116.354 7  22256170.941    91135489.88845
  21910594.281   115140945.920 8  21910599.863    89720326.695 7
  20240641.070   106365364.924 8  20240644.512    82882142.942 8
  21473023.148   112841556.097 8  21473026.652    87928530.75446
 14 11 14  2 30  0.0000000  0  9G01G04G12G14G20G22G25G31G32
  24149015.352   126903955.467 6  24149020.723    98886232.206 6
  24197305.164   127157693.019 6  24197309.789    99083976.28044
  24778480.703   130211855.675 7  24778483.875   101463822.645 5
  21128082.695   111028986.534 8  21128085.941    86516162.39146
  24271049.555   127545225.742 6  24271052.664    99385893.53744
  22438057.297   117912942.170 7  22438059.707    91880288.70446
  21995409.070   115586650.877 8  21995414.645    90067629.271 7
  20227208.398   106294775.552 8  20227210.961    82827138.292 8
  21394624.578   112429572.026 8  21394628.695    87607504.33946
 14 11 14  2 35  0.0000000  0  9G01G04G12G14G20G22G25G31G32
  24218495.469   127269069.996 6  24218501.941    99170736.791 7
  24330197.922   127856046.413 7  24330202.609    99628147.52643
  24966929.883   131202165.422 6  24966934.262   102235492.562 6
  21194730.320   111379221.526 7  21194733.539    86789072.67146
  24088710.039   126587028.360 6  24088713.902    98639246.77444
  22624957.945   118895108.190 7  22624958.363    92645612.42045
  22090944.969   116088694.992 7  22090950.637    90458832.478 7
  20221468.977   106264617.756 8  20221471.520    82803638.774 8
  21325364.875   112065609.687 8  21325368.973    87323897.36746
 14 11 14  2 40  0.0000000  0  8G01G04G14G20G22G25G31G32
  24296131.930   127677062.650 6  24296138.602    99488653.106 5
  24467452.063   128577315.230 7  24467456.035   100190174.98143
  21266265.719   111755141.350 8  21266268.082    87081997.09946
  23911525.484   125655918.878 6  23911528.918    97913707.21344
  22816426.031   119901274.087 7  22816427.316    93429637.21845
  22196842.844   116645190.965 7  22196849.059    90892465.671 7
  20223222.500   106273832.217 8  20223225.508    82810818.900 8
  21265524.508   111751142.888 8  21265527.000    87078858.38846
 14 11 14  2 45  0.0000000  0  8G01G04G14G20G22G25G31G32
  24381503.234   128125682.405 7  24381510.453    99838226.727 7
  24608485.758   129318454.917 7  24608490.320   100767686.28743
  21342748.938   112157062.513 8  21342751.750    87395182.29846
  23739991.195   124754501.996 7  23739994.672    97211304.79544
  23012005.188   120929052.184 7  23012006.648    94230502.82345
  22312708.773   117254071.821 7  22312714.859    91366918.227 7
  20232252.500   106321283.965 8  20232255.059    82847794.291 8
  21215353.586   111487495.394 8  21215356.555    86873418.78446
 14 11 14  2 50  0.0000000  0 10G01G04G14G16G20G22G25G29G31G32
  24474147.477   128612535.521 6  24474155.578   100217592.663 6
  24752719.656   130076408.953 7  24752723.043   101358299.86843
  21424234.859   112585274.053 7  21424237.711    87728853.48446
  24895476.180   130826621.311 7  24895479.953   101942833.89342
  23574599.664   123885366.646 7  23574602.055    96534056.58343
  23211236.266   121976017.141 7  23211238.645    95046319.03845
  22438119.125   117913106.878 7  22438125.289    91880451.956 7
  24970007.594   131218281.337 6  24970013.918   102248028.843 6
  20248330.055   106405771.356 8  20248332.348    82913628.644 8
  21175073.313   111275823.755 8  21175076.539    86708479.84546
 14 11 14  2 55  0.0000000  0 10G01G04G14G16G20G22G25G29G31G32
  24573588.984   129135102.941 6  24573597.133   100624787.792 6
  24899570.883   130848122.926 6  24899575.641   101959635.49943
  21510773.039   113040035.144 8  21510775.938    88083212.62146
  24664402.094   129612319.841 7  24664405.930   100996625.75344
  23415839.258   123051072.468 7  23415843.000    95883957.44044
  23413650.922   123039714.757 7  23413653.375    95875173.89444
  22572621.641   118619923.421 7  22572627.609    92431218.113 7
  24843095.055   130551350.700 6  24843100.992   101728343.143 6
  20271215.102   106526034.906 8  20271218.387    83007340.546 8
  21144870.641   111117106.902 8  21144874.645    86584804.33946
 14 11 14  3  0  0.0000000  0 10G01G04G14G16G20G22G25G29G31G32
  24679326.016   129690756.102 6  24679333.848   101057764.124 6
  25048464.852   131630556.904 7  25048468.223   102569324.40643
  21602405.320   113521565.649 7  21602408.781    88458431.01446
  24433688.672   128399917.934 6  24433693.008   100051897.44543
  23264185.773   122254133.838 7  23264189.391    95262966.58444
  23618780.281   124117671.434 6  23618782.945    96715139.65844
  22715743.031   119372027.939 7  22715748.160    93017273.581 7
  24720279.633   129905962.961 6  24720286.707   101225444.334 6
  20300661.320   106680773.589 8  20300663.434    83127916.199 8
  21124894.773   111012133.939 8  21124898.523    86503007.23146
 14 11 14  3  5  0.0000000  0 10G01G04G14G16G20G22G25G29G31G32
  24790842.578   130276778.241 6  24790850.402   101514404.547 6
  25198824.555   132420702.281 6  25198828.141   103185022.06443
  21699167.109   114030049.929 7  21699170.223    88854652.34546
  24203856.469   127192142.262 5  24203860.246    99110773.67743
  23120109.914   121497009.590 7  23120113.582    94672999.80344
  23826150.789   125207409.208 7  23826153.004    97564285.52744
  22866988.617   120166831.245 7  22866994.348    93636600.709 7
  24602132.617   129285090.914 6  24602137.309   100741648.807 6
  20336414.078   106868657.425 8  20336416.957    83274319.246 8
  21115260.234   110961501.757 8  21115263.504    86463553.54246
 14 11 14  3 10  0.0000000  0 10G01G04G14G16G20G22G25G29G31G32
  24907604.688   130890368.337 6  24907613.051   101992526.592 6
  25350083.820   133215579.564 6  25350088.629   103804406.96543
  21801082.492   114565617.562 7  21801085.922    89271977.52846
  23975428.852   125991748.490 6  23975433.352    98175402.25143
  22984062.828   120782074.829 7  22984065.484    94115907.93945
  24035289.906   126306440.732 7  24035291.430    98420673.19244
  23025850.906   121001657.385 7  23025856.160    94287114.387 7
  24489204.211   128691652.241 6  24489209.043   100279229.724 6
  20378216.398   107088327.990 8  20378218.355    83445491.140 8
  21116038.984   110965594.662 8  21116042.672    86466742.78247
 14 11 14  3 15  0.0000000  0  9G01G14G16G20G22G25G29G31G32
  25029069.492   131528667.125 6  25029076.734   102489902.350 6
  21908167.563   115128347.772 7  21908169.746    89710468.32145
  23748936.344   124801520.913 6  23748939.391    97247952.69743
  22856478.125   120111612.677 7  22856480.191    93593470.06444
  24245726.750   127412291.255 7  24245729.566    99282374.27944
  23191809.117   121873773.190 7  23191814.965    94966684.924 7
  24382041.227   128128507.239 6  24382046.109    99840415.949 6
  20425807.172   107338420.044 8  20425808.992    83640368.064 8
  21127265.602   111024589.185 8  21127269.090    86512712.51346
 14 11 14  3 20  0.0000000  0 10G01G14G16G20G22G23G25G29G31G32
  25154682.297   132188768.631 6  25154689.414   103004267.492 6
  22020424.359   115718265.326 7  22020427.258    90170144.06045
  23524910.703   123624260.550 7  23524913.969    96330607.49344
  22737769.547   119487793.359 7  22737771.270    93107377.23245
  24456993.070   128522500.395 7  24456995.031   100147471.92743
  25478664.023   133891290.745 7  25478665.684   104330878.99943
  23364335.320   122780404.005 6  23364340.551    95673150.310 6
  24281172.031   127598439.416 7  24281176.535    99427376.502 6
  20478926.836   107617567.771 8  20478929.340    83857885.742 8
  21148931.508   111138447.669 8  21148936.305    86601433.33846
 14 11 14  3 25  0.0000000  0 10G01G14G16G20G22G23G25G29G31G32
  25283884.680   132867736.919 6  25283893.141   103533333.850 6
  22137848.414   116335333.005 7  22137851.063    90650975.74845
  23303887.805   122462780.451 7  23303891.238    95425558.38644
  22628325.477   118912661.280 7  22628328.180    92659222.49345
  24668624.289   129634630.599 6  24668627.590   101014066.46043
  25296877.594   132936002.113 6  25296880.477   103586498.52843
  23542897.461   123718752.905 7  23542903.375    96404331.075 7
  24187109.969   127104141.221 7  24187114.629    99042209.536 6
  20537318.664   107924416.655 8  20537320.773    84096988.755 8
  21180990.953   111306917.807 8  21180994.668    86732708.64546
 14 11 14  3 30  0.0000000  0  9G14G16G20G22G23G25G29G31G32
  22260419.289   116979444.020 7  22260422.320    91152880.11145
  23086402.234   121319885.057 7  23086405.672    94534990.91144
  22528505.242   118388105.033 7  22528508.559    92250477.48345
  24880162.133   130746269.163 6  24880165.574   101880278.61843
  25113925.445   131974577.872 7  25113926.332   102837337.02944
  23726960.055   124686007.353 7  23726966.297    97158035.590 7
  24100344.359   126648185.968 7  24100348.531    98686920.257 6
  20600725.492   108257621.253 8  20600727.828    84356628.684 8
  21223351.250   111529523.571 8  21223355.410    86906167.59146
 14 11 14  3 35  0.0000000  0  8G14G16G20G23G25G29G31G32
  22388103.281   117650426.576 7  22388106.813    91675723.36945
  22872984.977   120198374.044 7  22872989.750    93661086.64645
  22438638.961   117915854.963 8  22438640.430    91882490.42845
  24929988.781   131007989.088 7  24929990.504   102084151.40244
  23915990.602   125679368.987 5  23915997.043    97932083.314 6
  24021341.898   126233029.211 7  24021345.074    98363422.021 6
  20668897.844   108615869.398 8  20668900.371    84635783.052 8
  21275883.352   111805581.016 8  21275887.441    87121277.21046
 14 11 14  3 40  0.0000000  0  8G14G16G20G23G25G29G31G32
  22520851.828   118348027.212 7  22520855.980    92219307.90845
  22664165.008   119101015.426 7  22664167.746    92806002.30045
  22359018.430   117497450.018 7  22359021.363    91556460.69945
  24745269.953   130037287.556 7  24745270.797   101327760.66943
  24109459.125   126696050.514 7  24109465.277    98724302.488 6
  23950542.047   125860972.303 7  23950545.672    98073507.939 6
  20741590.352   108997871.334 8  20741592.289    84933446.859 8
  21338415.156   112134185.925 8  21338418.527    87377332.84446
 14 11 14  3 45  0.0000000  0  8G14G16G20G23G25G29G31G32
  22658606.727   119071926.325 7  22658610.961    92783384.60145
  22460461.914   118030550.696 7  22460465.328    91971874.18745
  22289902.961   117134242.657 7  22289905.285    91273441.91645
  24559988.484   129063624.771 7  24559990.910   100569062.69045
  24306842.250   127733305.560 6  24306848.188    99532553.027 6
  23888351.930   125534165.676 7  23888356.313    97818853.752 5
  20818566.508   109402383.645 8  20818569.305    85248651.201 8
  21410736.469   112514237.362 8  21410740.863    87673476.66346
 14 11 14  3 50  0.0000000  0  8G14G16G20G23G25G29G31G32
  22801288.938   119821726.963 7  22801293.676    93367644.30245
  22262389.781   116989674.159 7  22262392.375    91160801.95245
  22231507.922   116827372.902 8  22231510.270    91034322.70445
  24374378.828   128088246.860 6  24374381.398    99809028.08743
  24507626.672   128788434.114 5  24507632.789   100354730.775 7
  23835149.672   125254587.564 6  23835154.379    97601000.926 6
  20899598.531   109828209.337 8  20899600.805    85580463.374 8
  21492600.891   112944438.510 8  21492604.195    88008698.12646
 14 11 14  3 55  0.0000000  0  8G14G16G20G23G25G29G31G32
  22948810.578   120596953.330 7  22948813.965    93971716.18544
  22070448.625   115981021.461 8  22070452.402    90374839.04345
  22184006.727   116577758.967 7  22184009.773    90839818.31245
  24188700.133   127112491.282 7  24188700.840    99048699.27944
  24711308.797   129858789.502 6  24711314.863   101188773.682 6
  23791275.414   125024025.418 7  23791279.957    97421342.366 6
  20984467.859   110274200.274 8  20984470.176    85927988.722 8
  21583726.477   113423303.161 8  21583729.973    88381839.15946
 14 11 14  4  0  0.0000000  0  8G14G16G20G23G25G29G31G32
  23101062.313   121397044.796 7  23101067.371    94595163.58444
  21885126.719   115007149.898 8  21885130.508    89615978.39446
  22147532.781   116386081.132 7  22147534.828    90690458.96545
  24003219.023   126137789.061 7  24003222.508    98289191.34044
  24917396.352   130941786.574 6  24917402.492   102032667.628 6
  23757029.523   124844062.579 6  23757033.840    97281111.789 6
  21072965.273   110739257.386 8  21072967.609    86290370.833 8
  21683794.492   113949164.548 8  21683798.984    88791601.04046
 14 11 14  4  5  0.0000000  0  7G14G16G20G23G29G31G32
  23257926.492   122221366.739 6  23257928.938    95237491.75943
  21706894.930   114070535.068 7  21706897.527    88886148.95545
  22122166.820   116252782.788 7  22122169.418    90586590.12445
  23818230.680   125165669.289 7  23818233.594    97531695.71244
  23732674.219   124716075.061 7  23732678.480    97181381.400 7
  21164893.609   111222345.443 8  21164896.297    86666803.016 8
  21792458.281   114520194.997 8  21792462.191    89236559.61946
 14 11 14  4 10  0.0000000  0  7G14G16G20G23G29G31G32
  23419264.234   123069201.216 7  23419267.984    95898141.64244
  21536204.664   113173549.783 8  21536207.469    88187199.63746
  22107946.828   116178057.263 7  22107948.691    90528362.35945
  23634043.539   124197755.679 7  23634045.102    96777477.48644
  23718428.484   124641213.152 6  23718432.758    97123047.526 7
  21260067.438   111722486.049 8  21260069.629    87056522.884 8
  21909339.781   115134411.782 8  21909344.000    89715169.83046
 14 11 14  4 15  0.0000000  0  7G14G16G20G23G29G31G32
  23584925.578   123939752.148 7  23584928.902    96576492.48244
  21373483.820   112318453.458 8  21373486.512    87520891.14546
  22104861.523   116161845.339 7  22104863.566    90515729.50345
  23450982.266   123235768.799 7  23450984.363    96027877.49844
  23714466.945   124620396.639 6  23714471.234    97106826.936 7
  21358312.547   112238766.199 8  21358314.680    87458819.027 8
  22034035.789   115789694.782 8  22034040.480    90225779.65146
 14 11 14  4 20  0.0000000  0  7G14G16G20G23G29G31G32
  23754741.445   124832144.140 6  23754746.238    97271862.34244
  21219141.055   111507375.511 8  21219143.777    86888882.60246
  22112852.281   116203836.323 7  22112854.727    90548449.68245
  23269394.961   122281520.176 7  23269396.328    95284307.35645
  23720919.664   124654307.890 6  23720924.121    97133251.281 6
  21459466.805   112770334.108 8  21459469.113    87873027.657 8
  22166119.797   116483797.239 8  22166124.777    90766638.43146
 14 11 14  4 25  0.0000000  0  7G14G16G20G23G29G31G32
  23928533.945   125745425.106 7  23928537.797    97983509.39043
  21073552.063   110742301.755 8  21073554.539    86292721.45646
  22131810.773   116303464.588 7  22131813.926    90626082.08045
  23089642.133   121336914.274 7  23089643.703    94548250.98745
  23737871.023   124743387.887 6  23737875.859    97202664.263 7
  21563380.188   113316403.956 8  21563382.512    88298536.507 7
  22305141.391   117214359.764 7  22305145.750    91335907.71146
 14 11 14  4 30  0.0000000  0  7G14G16G20G23G29G31G32
  24106104.836   126678567.533 6  24106109.586    98710632.96443
  20937066.109   110025062.462 8  20937067.891    85733833.94246
  22161583.406   116459917.705 7  22161586.461    90747993.51645
  22912104.500   120403942.174 8  22912106.105    93821259.95146
  23765358.430   124887830.733 7  23765362.117    97315217.172 7
  21669915.727   113876252.110 8  21669917.742    88734781.689 7
  22450633.445   117978925.134 7  22450638.820    91931672.65046
 14 11 14  4 35  0.0000000  0  8G14G16G20G23G27G29G31G32
  24287246.844   127630471.647 6  24287251.430    99452376.02243
  20809998.375   109357319.816 8  20810001.098    85213515.23046
  22201967.656   116672139.268 7  22201971.602    90913360.84145
  22737173.813   119484682.519 7  22737176.285    93104953.91645
  25082266.797   131808197.816 6  25082273.141   102707703.848 6
  23803370.594   125087590.849 6  23803374.871    97470874.474 6
  21778948.508   114449221.763 8  21778951.438    89181251.435 8
  22602114.117   118774955.425 8  22602118.539    92551955.69646
 14 11 14  4 40  0.0000000  0  9G09G14G16G20G23G27G29G31G32
  25195155.500   132401427.503 6  25195161.707   103169969.623 6
  24471736.500   128599970.846 6  24471741.719   100207829.36643
  20692632.586   108740558.043 8  20692635.086    84732921.81246
  22252719.758   116938841.732 7  22252722.754    91121180.76945
  22565265.836   118581296.803 7  22565267.000    92401017.10645
  24884736.750   130770174.052 5  24884745.824   101898853.712 7
  23851856.234   125342382.940 5  23851860.398    97669413.692 6
  21890365.180   115034720.944 8  21890368.156    89637484.425 8
  22759084.586   119599844.361 7  22759088.844    93194726.07245
 14 11 14  4 45  0.0000000  0  9G09G14G16G20G23G27G29G31G32
  24996928.594   131359733.670 6  24996933.816   102358260.268 6
  24659339.313   129585826.101 6  24659345.184   100976027.50443
  20585212.992   108176064.797 8  20585214.840    84293057.14946
  22313549.648   117258506.213 7  22313553.102    91370269.88245
  22396801.445   117696013.293 7  22396801.930    91711186.00645
  24685543.242   129723396.359 7  24685549.832   101083183.178 6
  23910713.898   125651676.846 6  23910716.746    97910421.937 6
  22004064.477   115632212.246 8  22004067.098    90103061.907 7
  22921040.570   120450922.759 7  22921042.602    93857903.82345
 14 11 14  4 50  0.0000000  0  9G09G14G16G20G23G27G29G31G32
  24798934.766   130319271.644 7  24798940.930   101547510.771 7
  24849807.625   130586739.861 6  24849812.438   101755959.60243
  20487947.258   107664929.256 8  20487948.852    83894769.88946
  22384129.438   117629404.703 7  22384133.320    91659281.43745
  22232220.445   116831132.290 8  22232221.039    91037252.96345
  24485197.172   128670572.028 7  24485204.125   100262800.804 6
  23979796.758   126014714.955 7  23979800.605    98193308.859 5
  22119954.906   116241221.405 8  22119957.652    90577614.346 7
  23087463.219   121325481.707 7  23087467.348    94539378.14345
 14 11 14  4 55  0.0000000  0  8G09G16G20G23G27G29G31G32
  24601517.992   129281853.799 5  24601526.719   100739133.358 7
  20401002.648   107208033.033 8  20401004.988    83538747.02047
  22464090.438   118049606.765 7  22464094.242    91986711.48545
  22071969.352   115989010.142 8  22071971.191    90381054.01246
  24284228.633   127614482.404 6  24284236.285    99439874.083 7
  24058921.063   126430516.861 7  24058925.340    98517310.384 6
  22237957.336   116861327.956 8  22237959.855    91060814.151 7
  23257832.000   122220778.287 7  23257838.078    95237011.62145
 14 11 14  5  0  0.0000000  0  8G09G16G20G23G27G29G31G32
  24405049.820   128249389.959 7  24405053.672    99934616.251 6
  20324506.852   106806047.126 8  20324509.574    83225511.36547
  22553034.203   118517001.478 7  22553036.590    92350914.73445
  21916509.266   115172059.985 8  21916510.863    89744469.60246
  24083183.906   126557983.663 7  24083190.625    98616628.621 6
  24147860.656   126897893.281 7  24147864.121    98881499.763 6
  22358002.750   117492170.650 8  22358005.969    91552379.702 7
  23431623.938   123134055.784 7  23431628.703    95948656.10945
 14 11 14  5  5  0.0000000  0  8G09G16G20G23G27G29G31G32
  24209899.570   127223872.607 7  24209904.727    99135512.005 7
  20258546.211   106459421.721 8  20258548.543    82955413.77447
  22650523.195   119029308.396 7  22650526.965    92750114.67045
  21766304.375   114382728.998 8  21766306.254    89129406.56346
  23882615.633   125503987.761 7  23882621.301    97795333.494 6
  24246347.852   127415449.819 7  24246351.906    99284790.500 7
  22480030.844   118133433.365 7  22480034.211    92052064.720 7
  23608307.281   124062542.344 6  23608312.555    96672151.93643
 14 11 14  5 10  0.0000000  0  8G09G16G20G23G27G29G31G32
  24016466.773   126207383.490 6  24016473.605    98343442.859 7
  20203164.883   106168389.632 7  20203167.359    82728635.63247
  22756095.578   119584092.921 7  22756098.891    93182414.14345
  21621827.141   113623494.751 8  21621827.887    88537795.53046
  23683087.602   124455463.481 7  23683093.484    96978301.999 7
  24354082.563   127981604.337 5  24354087.770    99725949.808 6
  22603991.711   118784847.989 8  22603994.387    92559660.224 7
  23787361.992   125003469.916 7  23787366.957    97405341.94244
 14 11 14  5 15  0.0000000  0  8G09G16G20G23G27G29G31G32
  23825164.445   125202085.779 7  23825170.207    97560094.332 6
  20158364.578   105932964.776 7  20158366.461    82545187.81146
  22869262.344   120178786.333 7  22869264.242    93645811.35644
  21483550.797   112896848.828 8  21483551.859    87971577.95246
  23485174.383   123415427.928 7  23485181.129    96167885.200 7
  24470734.031   128594604.025 6  24470737.871   100203611.773 6
  22729841.508   119446190.744 7  22729844.363    93074991.951 7
  23968257.117   125954081.296 7  23968262.418    98146077.71244
 14 11 14  5 20  0.0000000  0  8G09G16G20G23G27G29G31G32
  23636420.273   124210221.426 7  23636425.973    96787213.312 7
  20124108.602   105752948.338 8  20124111.074    82404915.34047
  22989513.000   120810706.157 7  22989514.516    94138216.13844
  21351950.867   112205287.278 8  21351951.824    87432698.85346
  23289459.594   122386938.098 7  23289465.164    95366464.903 7
  24595933.727   129252537.355 7  24595938.289   100716287.209 6
  22857545.016   120117277.914 7  22857547.398    93597916.740 7
  24150474.109   126911640.901 7  24150480.379    98892227.76744
 14 11 14  5 25  0.0000000  0  8G09G16G20G23G27G29G31G32
  23450670.430   123234101.158 7  23450675.898    96026600.434 7
  20100318.336   105627927.935 8  20100320.809    82307496.92047
  23116316.953   121477065.730 7  23116320.434    94657457.06944
  21227498.672   111551287.958 8  21227499.805    86923089.05146
  23096528.109   121373077.818 7  23096534.352    94576444.356 7
  24729294.117   129953349.378 6  24729297.965   101262374.621 6
  22987074.789   120797959.908 7  22987077.395    94128317.974 7
  24333500.008   127873438.589 7  24333504.563    99641680.18344
 14 11 14  5 30  0.0000000  0  8G09G16G20G23G27G29G31G32
  23268368.617   122276102.444 7  23268373.688    95280108.003 7
  20086875.211   105557287.813 8  20086877.730    82252452.74347
  23249128.141   122174999.942 6  23249132.809    95201301.78844
  21110660.969   110937300.200 8  21110661.348    86444657.09946
  22906971.031   120376951.593 7  22906976.387    93800242.543 7
  24870397.930   130694858.583 6  24870403.492   101840174.158 6
  23118407.344   121488116.773 7  23118410.664    94666102.144 7
  24516820.773   128836800.710 7  24516825.543   100392351.72944
 14 11 14  5 35  0.0000000  0  9G09G16G19G20G23G27G29G31G32
  23089978.789   121338657.164 7  23089983.555    94549631.378 7
  20083627.125   105540217.639 7  20083628.855    82239151.36747
  25060647.094   131694585.479 6  25060650.555   102619161.36343
  23387390.172   122901573.132 6  23387395.164    95767462.48744
  21001892.875   110365721.814 8  21001893.305    85999271.32746
  22721379.922   119401668.428 7  22721386.641    93040282.029 7
  25018812.000   131474772.659 6  25018815.156   102447899.428 6
  23251525.234   122187654.111 7  23251528.230    95211195.794 7
  24699939.938   129799093.145 7  24699944.199   101142189.59144
 14 11 14  5 40  0.0000000  0  9G07G09G16G19G20G23G27G31G32
  25219290.289   132528207.164 5                 103268799.699 5
  22915972.523   120424249.067 7  22915977.813    93837105.753 7
  20090383.969   105575723.541 8  20090385.758    82266818.35847
  24840848.203   130539539.286 6  24840851.488   101719125.52843
  23530536.484   123653802.738 7  23530540.434    96353615.17244
  20901639.938   109838887.920 8  20901640.551    85588751.41246
  22540346.914   118450335.767 7  22540353.770    92298984.274 7
  23386415.164   122896502.066 7  23386418.047    95763544.402 7
  24882363.141   130757733.701 7  24882366.484   101889182.05543
 14 11 14  5 45  0.0000000  0  9G07G09G16G19G20G23G27G31G32
  25061144.625   131697148.581 6  25061149.133   102621221.453 6
  22746829.070   119535392.741 7  22746834.563    93144490.637 8
  20106922.531   105662635.884 7  20106924.438    82334542.31847
  24619900.578   129378450.009 7  24619904.324   100814381.03644
  23677989.352   124428669.781 7  23677993.691    96957407.47544
  20810328.000   109359040.471 8  20810329.145    85214844.35046
  22364458.734   117526035.418 8  22364464.531    91578750.569 7
  23523064.992   123614601.177 7  23523067.953    96323101.658 6
  25063609.375   131710187.924 6  25063614.098   102631354.08343
 14 11 14  5 50  0.0000000  0 10G07G09G10G16G19G20G23G27G31G32
  24902445.789   130863175.718 6  24902448.418   101971372.498 5
  22583031.109   118674633.757 7  22583037.219    92473769.535 7
  24936171.789   131040445.246 6  24936175.684   102109467.87243
  20132991.039   105799628.239 7  20132993.391    82441289.63546
  24398345.594   128214173.471 6  24398348.793    99907152.99244
  23829169.281   125223133.343 6  23829174.055    97576469.80543
  20728364.898   108928321.273 8  20728366.098    84879219.03646
  22194294.898   116631819.682 8  22194300.805    90881959.441 8
  23661466.773   124341907.649 7  23661470.789    96889833.571 6
  25243205.844   132653981.986 6  25243213.332   103366777.92743
 14 11 14  5 55  0.0000000  0 10G07G09G10G16G19G20G23G27G31G32
  24743229.383   130026492.809 6  24743233.402   101319412.076 6
  22425068.906   117844531.882 8  22425073.082    91826936.985 7
  24867480.625   130679473.306 6  24867485.367   101828191.21343
  20168310.203   105985232.321 7  20168312.801    82585916.20547
  24176741.375   127049641.197 6  24176745.059    98999725.73343
  23983502.695   126034150.823 6  23983505.805    98208431.15044
  20656134.070   108548744.737 8  20656135.242    84583445.09946
  22030427.227   115770691.848 8  22030433.043    90210951.079 8
  23801613.992   125078384.671 7  23801618.363    97463711.355 6
  25420699.172   133586710.012 6  25420705.590   104093538.91043
 14 11 14  6  0  0.0000000  0  9G07G09G10G16G19G20G23G27G31
  24583547.078   129187351.522 7  24583549.703   100665535.540 6
  22273426.031   117047647.444 7  22273429.652    91205988.142 7
  24808830.492   130371264.544 6  24808834.953   101588028.33743
  20212576.453   106217850.265 8  20212578.367    82767176.96947
  23955660.867   125887856.191 6  23955663.809    98094439.10144
  24140406.344   126858684.417 7  24140410.020    98850924.63844
  20593990.961   108222182.710 8  20593991.742    84328981.15646
  21873415.680   114945590.096 8  21873421.586    89568015.043 8
  23943500.055   125823998.008 7  23943503.918    98044708.218 6
 14 11 14  6  5  0.0000000  0  9G07G09G10G16G19G20G23G27G31
  24423452.117   128346056.704 6  24423457.832   100009981.298 6
  22128589.633   116286524.108 8  22128593.168    90612905.103 7
  24760360.563   130116553.820 6  24760364.469   101389552.45743
  20265462.594   106495772.037 8  20265465.152    82983739.39447
  23735687.117   124731881.654 7  23735688.938    97193680.02744
  24299305.867   127693711.319 6  24299310.488    99501594.88444
  20542261.125   107950339.833 8  20542262.574    84117155.52447
  21723801.656   114159367.649 8  21723807.688    88955374.599 8
  24087118.133   126578709.290 7  24087122.156    98632794.340 7
 14 11 14  6 10  0.0000000  0  9G07G09G10G16G19G20G23G27G31
  24263020.422   127502973.545 7  24263023.832    99353033.756 7
  21991036.547   115563679.282 7  21991040.285    90049649.475 7
  24722169.063   129915855.626 6  24722173.375   101233164.16643
  20326627.063   106817193.958 8  20326629.414    83234198.05247
  23517412.008   123584841.086 7  23517415.129    96299882.53145
  24459633.859   128536242.040 6  24459639.355   100158112.24143
  20501234.461   107734741.936 8  20501235.117    83949157.14446
  21582111.578   113414781.345 8  21582117.137    88375177.833 8
  24232457.820   127342475.695 7  24232462.215    99227936.388 7
 14 11 14  6 15  0.0000000  0  9G07G09G10G16G19G20G23G27G31
  24102325.000   126658527.418 6  24102330.895    98695024.003 7
  21861237.391   114881581.394 8  21861241.121    89518144.784 7
  24694307.484   129769444.758 6  24694312.188   101119077.74343
  20395711.828   107180234.643 8  20395714.324    83517086.92947
  23301440.313   122449902.102 7  23301441.949    95415514.88045
  24620829.422   129383325.393 6  24620833.840   100818177.02143
  20471162.844   107576714.973 8  20471163.383    83826019.19946
  21448846.648   112714468.683 8  21448852.043    87829479.947 8
  24379510.758   128115243.708 6  24379515.305    99830092.786 6
 14 11 14  6 20  0.0000000  0  9G07G09G10G16G19G20G23G27G31
  23941468.164   125813206.970 7  23941471.621    98036333.054 7
  21739649.445   114242634.417 7  21739654.285    89020264.121 8
  24676785.539   129677361.204 6  24676789.617   101047324.24244
  20472345.258   107582947.153 8  20472347.520    83830888.87646
  23088380.680   121330270.787 7  23088383.160    94543075.17845
  24782337.266   130232054.799 5  24782340.152   101479524.53643
  20452257.672   107477369.182 8  20452258.750    83748606.84446
  21324482.156   112060931.209 8  21324487.789    87320230.238 8
  24528263.734   128896940.901 7  24528268.016   100439206.921 6
 14 11 14  6 25  0.0000000  0  9G07G09G10G16G19G20G23G27G31
  23780549.063   124967572.870 7  23780553.008    97377397.546 6
  21626715.656   113649160.565 8  21626719.918    88557817.034 8
  24669562.195   129639402.130 6  24669566.824   101017745.78944
  20556149.734   108023343.293 8  20556152.047    84174054.68546
  22878849.781   120229179.752 7  22878852.598    93685082.58245
  24943615.680   131079583.168 6  24943620.137   102139936.28143
  20444687.852   107437588.367 8  20444688.512    83717608.70646
  21209465.531   111456517.887 8  21209471.711    86849259.102 8
  24678698.250   129687479.553 6  24678702.848   101055210.541 6
 14 11 14  6 30  0.0000000  0  9G07G09G10G16G19G20G23G27G31
  23619689.258   124122256.060 6  23619693.094    96718709.519 6
  21522856.797   113103379.657 8  21522861.348    88132533.216 8
  24672555.266   129655128.601 6  24672559.414   101030000.07343
  20646741.328   108499401.367 8  20646742.934    84545008.96647
  22673465.250   119149877.270 8  22673468.145    92844067.88245
  25104136.109   131923124.064 6  25104139.742   102797240.92242
  20448575.586   107458014.216 8  20448576.527    83733524.85346
  21104211.695   110903405.471 8  21104217.465    86418262.659 8
  24830795.328   130486745.159 7  24830798.438   101678014.375 6
 14 11 14  6 35  0.0000000  0  8G07G09G10G16G19G23G27G31
  23459026.570   123277964.819 7  23459029.258    96060820.620 6
  21428473.305   112607391.122 8  21428478.211    87746048.629 8
  24685634.523   129723866.991 6  24685639.934   101083562.38343
  20743730.750   109009085.892 8  20743732.727    84942165.70547
  22472844.352   118095610.838 7  22472846.645    92022561.95045
  20463993.891   107539039.505 8  20463995.137    83796661.32346
  21009098.258   110403583.079 8  21009103.410    86028790.864 8
  24984524.117   131294597.914 6  24984527.355   102307509.764 6
 14 11 14  6 40  0.0000000  0  8G07G09G10G16G19G23G27G31
  23298707.875   122435486.061 7  23298710.105    95404343.927 6
  21343938.281   112163156.342 8  21343942.090    87399891.689 8
  24708630.078   129844712.693 5  24708636.012   101177727.80443
  20846731.844   109550360.798 8  20846734.340    85363938.30046
  22277605.141   117069621.317 7  22277607.211    91223089.92746
  20490970.109   107680801.770 8  20490971.801    83907125.29446
  20924465.992   109958837.176 8  20924471.148    85682235.849 8
  25139855.750   132110869.440 6  25139860.336   102943565.050 5
 14 11 14  6 45  0.0000000  0  8G07G09G10G16G19G23G27G31
  23138900.016   121595689.727 7  23138901.250    94749957.485 6
  21269595.219   111772480.528 8  21269599.723    87095468.980 8
  24741329.609   130016541.438 6  24741333.512   101311620.14543
  20955359.477   110121203.475 8  20955361.484    85808750.72446
  22088357.539   116075117.544 7  22088359.105    90448152.34046
  20529481.453   107883179.583 8  20529482.727    84064822.17246
  20850612.820   109570738.126 8  20850618.652    85379821.191 8
  25296751.391   132935358.505 6  25296755.074   103586023.670 6
 14 11 14  6 50  0.0000000  0  9G07G09G10G13G16G19G21G23G27
  22979784.328   120759529.152 7  22979785.660    94098403.941 6
  21205753.961   111436991.593 8  21205758.707    86834049.008 8
  24783473.727   130238009.632 6  24783477.676   101484192.55243
  25085788.727   131826717.270 6  25085792.297   102722119.99642
  21069233.648   110719614.219 8  21069235.484    86275044.76146
  21905703.172   115115268.096 7  21905706.477    89700218.06146
  25907967.328   136147251.682 5  25907977.281   106088830.24742
  20579454.477   108145789.694 8  20579455.715    84269453.25446
  20787794.711   109240624.094 8  20787799.746    85122589.627 8
 14 11 14  6 55  0.0000000  0  9G07G09G10G13G16G19G21G23G27
  22821555.086   119928038.954 7  22821558.438    93450489.700 7
  21152686.445   111158121.539 7  21152691.547    86616747.664 8
  24834768.070   130507567.423 6  24834773.684   101694237.52643
  24878973.922   130739897.788 6  24878977.422   101875247.83143
  21187979.070   111343625.006 8  21187981.195    86761286.84646
  21730235.102   114193174.784 8  21730236.844    88981704.11246
  25887405.086   136039169.036 5  25887408.977   106004610.19142
  20640766.297   108467984.090 8  20640767.504    84520513.71646
  20736217.969   108969588.434 8  20736223.203    84911393.160 8
 14 11 14  7  0  0.0000000  0  9G07G09G10G13G16G19G21G23G27
  22664432.398   119102344.495 7  22664434.262    92807091.566 7
  21110626.875   110937096.283 8  21110631.391    86444520.136 8
  24894884.102   130823473.122 6  24894888.551   101940397.61843
  24675171.109   129668904.663 6  24675174.105   101040707.60843
  21311230.180   111991315.718 8  21311232.840    87265980.82246
  21562525.906   113311861.562 8  21562528.836    88294966.92446
  25874081.797   135969160.206 5  25874086.313   105950057.95642
  20713244.844   108848861.928 8  20713246.164    84817301.47846
  20696044.563   108758476.582 8  20696049.371    84746890.535 8
 14 11 14  7  5  0.0000000  0  9G07G09G10G13G16G19G21G23G27
  22508640.359   118283660.714 7  22508644.633    92169156.294 7
  21079765.828   110774921.102 8  21079770.715    86318149.773 8
  24963453.430   131183810.264 6  24963457.734   102221179.71843
  24474899.305   128616467.572 6  24474901.410   100220626.53643
  21438632.992   112660821.316 8  21438635.008    87787673.38946
  21403135.125   112474255.724 8  21403136.871    87642287.42846
  25868169.875   135938084.167 5  25868173.070   105925843.05842
  20796672.219   109287274.309 8  20796672.926    85158921.36946
  20667386.984   108607879.415 8  20667392.219    84629542.203 8
 14 11 14  7 10  0.0000000  0 10G07G09G10G13G16G19G21G23G27G30
  22354432.273   117473287.976 8  22354435.371    91537697.220 7
  21060249.461   110672363.036 7  21060255.102    86238234.359 8
  25040081.594   131586490.111 6  25040086.031   102534956.21743
  24278685.883   127585362.475 6  24278689.359    99417168.19043
  21569843.125   113350333.620 8  21569844.832    88324955.64646
  21252594.516   111683162.644 8  21252596.152    87025851.55446
  25869796.914   135946636.551 5  25869800.352   105932507.44742
  20890782.961   109781828.643 8  20890784.625    85544288.22846
  20650307.031   108518123.953 7  20650311.910    84559602.992 8
  25143883.492   132131882.752 6  25143890.879   102960023.940 6
 14 11 14  7 15  0.0000000  0 10G07G09G10G13G16G19G21G23G27G30
  22202070.023   116672618.880 8  22202073.035    90913799.397 7
  21052178.063   110629948.420 7  21052183.641    86205183.914 8
